,prop_id,address,comuna,loc_address,loc_latitude,loc_longitude,state,closest_equip_cult_dist
0,1,"Quinta Normal, Salvador Gutierrez con Nuñez de Balboa",Quinta Normal,"Quinta Normal, Provincia de Santiago, Región Metropolitana de Santiago, Chile",-33.42827555,-70.69992761772909,False,3.0432841118968033
1,2,"Santiago, Avenida El Rosal",Santiago,"Avenida El Rosal, Santa María de Maipú, Maipú, Provincia de Santiago, Región Metropolitana de Santiago, 9250678, Chile",-33.4897141,-70.7757485,True,2.8448138573034685
2,3,"Maipú, El Huaso 2546 Maipú",Maipú,"Maipú, Provincia de Santiago, Región Metropolitana de Santiago, 9251542, Chile",-33.5094409,-70.756182,False,0.0
3,4,"Puente Alto, Metro sótero del rio",Puente Alto,"Puente Alto, Provincia de Cordillera, Región Metropolitana de Santiago, Chile",-33.6095279,-70.5754736,False,0.0
4,5,"Maipú, Ramayana  cerca Metro Plaza Maipu",Maipú,"Maipú, Provincia de Santiago, Región Metropolitana de Santiago, 9251542, Chile",-33.5094409,-70.756182,False,0.0
5,6,"Paine, Dieciocho de Septiembre (AG)/Pedro Vargas",Paine,"Paine, Provincia de Maipo, Región Metropolitana de Santiago, Chile",-33.8101102,-70.7390236,False,26.922500173258
6,7,"Maipú, El Conquistador/Autopista del Sol",Maipú,"Maipú, Provincia de Santiago, Región Metropolitana de Santiago, 9251542, Chile",-33.5094409,-70.756182,False,0.0
7,8,"Santiago, Santa Lidia, Maipú, Chile",Santiago,"Santiago, Provincia de Santiago, Región Metropolitana de Santiago, 8320000, Chile",-33.4377756,-70.6504502,False,0.0
8,9,"San Miguel, San Miguel, Región Metropolitana",San Miguel,"San Miguel, Gran Avenida José Miguel Carrera, San Miguel, Provincia de Santiago, Región Metropolitana de Santiago, 8910183, Chile",-33.4887135,-70.6510759,True,2.4564094696047922
9,10,"Vitacura, Joaquin cerda",Vitacura,"Joaquín Cerda, Vitacura, Provincia de Santiago, Región Metropolitana de Santiago, 7640639, Chile",-33.3851876,-70.5737183,True,0.9212452068171485
10,11,"Puente Alto, Portezuelo Tobalaba, casa de 2 pisos, 3 Dorm y 2 Baños, amplio terreno",Puente Alto,"Puente Alto, Provincia de Cordillera, Región Metropolitana de Santiago, Chile",-33.6095279,-70.5754736,False,0.0
11,12,"Colina, El Algarrobo / Avenida del Valle",Colina,"Colina, Região Imediata de Barretos, Região Geográfica Intermediária de Ribeirão Preto, São Paulo, Região Sudeste, 14770-000, Brasil",-20.711443,-48.53867,False,1816.8198646604321
12,13,"Providencia, Miguel Claro, metro Santa Isabel",Providencia,"Providencia, Los Abades, Nariño, Colombia",1.2420408,-77.6009953089243,False,0.0
13,14,"Las Condes, Camino Otoñal",Las Condes,"Camino Otoñal, La Foresta, Las Condes, Provincia de Santiago, Región Metropolitana de Santiago, 7630000, Chile",-33.407257,-70.5175304,True,1.9443875216787327
14,15,"Lo Barnechea, Laguna de Lo Barnechea",Lo Barnechea,"Lo Barnechea, Provincia de Santiago, Región Metropolitana de Santiago, Chile",-33.2935888,-70.39035501440654,False,0.0
15,16,"Calera de Tango, Calle 6",Calera de Tango,"Calle Manantial, Villa Puerta del Inca, Calera de Tango, Provincia de Maipo, Región Metropolitana de Santiago, Chile",-33.630214,-70.7790107,True,13.562161971588703
16,17,"Puente Alto, San hugo",Puente Alto,"San Hugo, Condominio Tempus, Puente Alto, Provincia de Cordillera, Región Metropolitana de Santiago, 8151746, Chile",-33.590539,-70.5614108,True,2.477814768329008
17,18,"La Reina, Pontevedra/ Av. Vicente Pérez Rosales",La Reina,"La Reina, Provincia de Santiago, Región Metropolitana de Santiago, Chile",-33.4557204,-70.5353594,False,0.0
18,19,"Maipú, Americo Vespucio/Primo de Rivera",Maipú,"Primo de Rivera / Vespucio, Avenida Américo Vespucio, Maipú, Provincia de Santiago, Región Metropolitana de Santiago, 9250678, Chile",-33.4947158,-70.7471663,True,1.8355354281644456
19,20,"La Granja, La Granja, Región Metropolitana",La Granja,"La Granja, Coronel, Villa Ignacio Serrano, La Granja, Provincia de Santiago, Región Metropolitana de Santiago, 8231472, Chile",-33.5411318,-70.6159781,True,4.665396137686093
20,21,"Buin, Calle el bosque",Buin,"Buin, Provincia de Maipo, Región Metropolitana de Santiago, Chile",-33.7319741,-70.7419619,False,19.4908754652278
21,22,"Colina, ¡se aceptan ofertas!/colegio san anselmo",Colina,"Colina, Região Imediata de Barretos, Região Geográfica Intermediária de Ribeirão Preto, São Paulo, Região Sudeste, 14770-000, Brasil",-20.711443,-48.53867,False,1816.8198646604321
22,23,"Las Condes, Camino Del Observatorio/Los Pintores",Las Condes,"Las Condes, Provincia de Santiago, Región Metropolitana de Santiago, Chile",-33.4247879,-70.51749760753927,False,0.0
23,24,"Lampa, Valle del Aconcagua",Lampa,"Pasaje Valle del Aconcagua, Villa Parque Lampa, Lampa, Provincia de Chacabuco, Región Metropolitana de Santiago, Chile",-33.2827185,-70.8823629,True,15.162077719420772
24,25,"Puente Alto, Jorge ross ossa",Puente Alto,"Avenida Jorge Ross Ossa, Barrio Holanda, Puente Alto, Provincia de Cordillera, Región Metropolitana de Santiago, 8153644, Chile",-33.5971692,-70.5976108,True,2.4698936972004373
25,26,"Pudahuel, Casa 2 Pisos en Lomas de Lo Aguirre",Pudahuel,"Pudahuel, Provincia de Santiago, Región Metropolitana de Santiago, Chile",-33.4193729,-70.86335607718577,False,0.0
26,27,"Las Condes, ing. Pedro Blanquier con La Rábida",Las Condes,"Las Condes, Provincia de Santiago, Región Metropolitana de Santiago, Chile",-33.4247879,-70.51749760753927,False,0.0
27,28,"Colina, La Siembra con Los Nogales",Colina,"Colina, Região Imediata de Barretos, Região Geográfica Intermediária de Ribeirão Preto, São Paulo, Região Sudeste, 14770-000, Brasil",-20.711443,-48.53867,False,1816.8198646604321
28,29,"La Cisterna, Casa con Local 140 M2 y 2 estacionamientos",La Cisterna,"La Cisterna, Provincia de Santiago, Región Metropolitana de Santiago, Chile",-33.529504200000005,-70.66424867440273,False,0.0
29,30,"Quilicura, Pedro riveros/aranjuez",Quilicura,"Quilicura, Provincia de Santiago, Región Metropolitana de Santiago, Chile",-33.3552701,-70.7443552450391,False,0.0
30,31,"Santiago, Madrid 1414",Santiago,"1414, Madrid, Barrio Circo Matta, Santiago, Provincia de Santiago, Región Metropolitana de Santiago, 8360848, Chile",-33.46212812222222,-70.6341822,True,3.0956666230703216
31,32,"Santiago, Omar Herrera Gutiérrez 1642",Santiago,"Omar Herrera Gutiérrez, Condominio Las Capillas, Puente Alto, Provincia de Cordillera, Región Metropolitana de Santiago, 8150513, Chile",-33.5755629,-70.5989377,True,2.9952323857666934
32,33,"Ñuñoa, Montenegro/Echeñique",Ñuñoa,"Montenegro / Echenique, Avenida Echeñique, Ñuñoa, Provincia de Santiago, Región Metropolitana de Santiago, 7750000, Chile",-33.4466401,-70.5844469,True,1.7256947741716644
33,34,"Vitacura, La llaveria 1763",Vitacura,"1763, La Llavería, Vitacura, Provincia de Santiago, Región Metropolitana de Santiago, 52000, Chile",-33.38045002105263,-70.54478922105264,True,1.9548289399455057
34,35,"Quilicura, Villa Los Compositores",Quilicura,"Plaza de Juegos Los Compositores, Pasaje Strauss, Los Compositores, Quilicura, Provincia de Santiago, Región Metropolitana de Santiago, 8700000, Chile",-33.3609176,-70.7347547,True,1.0912321020109303
35,36,"Lo Barnechea, Camino la loica",Lo Barnechea,"Camino La Loica, Santuario del Valle, Lo Barnechea, Provincia de Santiago, Región Metropolitana de Santiago, 7700651, Chile",-33.3199046,-70.5468748,True,6.916105644724521
36,37,"Santiago, Cueto con Catedral",Santiago,"Santiago, Provincia de Santiago, Región Metropolitana de Santiago, 8320000, Chile",-33.4377756,-70.6504502,False,0.0
37,38,"La Florida, Lo Cañas/Las Araucarias",La Florida,"La Florida, Provincia de Santiago, Región Metropolitana de Santiago, Chile",-33.530816599999994,-70.54407548567474,False,0.0
38,39,"Peñalolén, Casa grande sector el valle peñalolen",Peñalolén,"Peñalolén, Provincia de Santiago, Región Metropolitana de Santiago, Chile",-33.48622465,-70.50929029561439,False,0.0
39,40,"La Florida, Rojas Magallanes / Araucania",La Florida,"La Florida, Provincia de Santiago, Región Metropolitana de Santiago, Chile",-33.530816599999994,-70.54407548567474,False,0.0
40,41,"Santiago, Lomas de Eyzaguirre",Santiago,"Lomas de Eyzaguirre, Puente Alto, Provincia de Cordillera, Región Metropolitana de Santiago, 9480018, Chile",-33.6135471,-70.5394149,True,3.375925402070763
41,42,"Til til, Dario Ovalle/Manuel Rodriguez",Til til,"Tiltil, Provincia de Chacabuco, Región Metropolitana de Santiago, Chile",-33.0852808,-70.9293877,False,34.55671958371288
42,43,"Colina, Chicureo Poniente, Colegio Pumahue",Colina,"Colina, Região Imediata de Barretos, Região Geográfica Intermediária de Ribeirão Preto, São Paulo, Região Sudeste, 14770-000, Brasil",-20.711443,-48.53867,False,1816.8198646604321
43,44,"Melipilla, Casa en Melipilla",Melipilla,"Melipilla, Provincia de Melipilla, Región Metropolitana de Santiago, Chile",-33.6855134,-71.2145796,False,30.916444718547478
44,45,"La Florida, La Florida, Región Metropolitana",La Florida,"La Florida, Provincia de Santiago, Región Metropolitana de Santiago, 8240000, Chile",-33.5204181,-70.6006178,True,5.377640970424753
45,46,"Lo Barnechea, Cerro Punta de Damas",Lo Barnechea,"Cerro Punta de Damas, Lomas de La Dehesa, Lo Barnechea, Provincia de Santiago, Región Metropolitana de Santiago, W, Chile",-33.3453879,-70.52636,True,5.327622852427196
46,47,"Lo Barnechea, Los Refugios del Arrayán",Lo Barnechea,"Condominio Los Refugios Del Arrayán, El Arrayán, Lo Barnechea, Provincia de Santiago, Región Metropolitana de Santiago, 7710240, Chile",-33.3438353,-70.4750661,True,9.358233193703816
47,48,"Peñalolén, El Olivillo 5956",Peñalolén,"El Olivillo, Peñalolén, Provincia de Santiago, Región Metropolitana de Santiago, 7940697, Chile",-33.5075349,-70.5584684,True,2.9079181199118156
48,49,"Santiago, la foresta puente alto",Santiago,"Puente Alto, Avenida Ejército Libertador, Barrio Suiza, Puente Alto, Provincia de Cordillera, Región Metropolitana de Santiago, 8153644, Chile",-33.5913562,-70.5944307,True,2.675475326195389
49,50,"Huechuraba, Avenida El Sauce 1244, Portada de Huechuraba III, Huechuraba",Huechuraba,"Huechuraba, Provincia de Santiago, Región Metropolitana de Santiago, Chile",-33.365721449999995,-70.6429271186091,False,0.0
50,51,"Maipú, Maipú, Región Metropolitana",Maipú,"Maipú, Provincia de Santiago, Región Metropolitana de Santiago, 9251542, Chile",-33.5094409,-70.756182,True,0.0
51,52,"Las Condes, Roncesvalles",Las Condes,"Roncesvalles, Las Condes, Provincia de Santiago, Región Metropolitana de Santiago, 7550000, Chile",-33.4141521,-70.5619277,True,3.7821373954323794
52,53,"Cerro Navia, Serrano 1692",Cerro Navia,"1692, Serrano, Cerro Navia, Provincia de Santiago, Región Metropolitana de Santiago, 9090184, Chile",-33.4186311,-70.763311875,True,1.7692937419925796
53,54,"Quinta Normal, Casa 2 Pisos en Q. Normal",Quinta Normal,"Quinta Normal, Provincia de Santiago, Región Metropolitana de Santiago, Chile",-33.42827555,-70.69992761772909,False,3.0432841118968033
54,55,"Maipú, Maipú, Región Metropolitana",Maipú,"Maipú, Provincia de Santiago, Región Metropolitana de Santiago, 9251542, Chile",-33.5094409,-70.756182,True,0.0
55,56,"Buin, Tulio Parra Pérez",Buin,"Tulio Parra Pérez, Cumbres de Buin, Bajos de Matte, Buin, Provincia de Maipo, Región Metropolitana de Santiago, Chile",-33.7323632,-70.7236166,True,18.676661679905436
56,57,"Puente Alto, Las castañuelas 3535",Puente Alto,"Las Castañuelas, Villa El Almendral, Puente Alto, Provincia de Cordillera, Región Metropolitana de Santiago, 8153644, Chile",-33.6311882,-70.621771,True,4.922233788005886
57,58,"La Reina, Julia bernstein/maria monvel",La Reina,"La Reina, Provincia de Santiago, Región Metropolitana de Santiago, Chile",-33.4557204,-70.5353594,False,0.0
58,59,"Pudahuel, Pudahuel, Región Metropolitana",Pudahuel,"Pudahuel, Provincia de Santiago, Región Metropolitana de Santiago, 9020078, Chile",-33.4368017,-70.7517915,True,1.3779336283273957
59,60,"Las Condes, Bocaccio/Las Condes",Las Condes,"Bocaccio / Avenida Las Condes, Avenida Las Condes, Renacimiento Italiano, Las Condes, Provincia de Santiago, Región Metropolitana de Santiago, 7550000, Chile",-33.3985394,-70.5515084,True,2.4293015851459985
60,61,"Las Condes, Cam. de Las Nieves 1466",Las Condes,"Las Condes, Provincia de Santiago, Región Metropolitana de Santiago, Chile",-33.4247879,-70.51749760753927,False,0.0
61,62,"Puente Alto, Las Perdices, Puente Alto",Puente Alto,"Depósito Alsacia Puente Alto, Bahía Inglesa, Villa Los Industriales, Puente Alto, Provincia de Cordillera, Región Metropolitana de Santiago, 8220093, Chile",-33.5616869,-70.55731809130366,True,3.6381421184727474
62,63,"Quilicura, Los Apeninos con Tierra del Fuego",Quilicura,"Quilicura, Provincia de Santiago, Región Metropolitana de Santiago, Chile",-33.3552701,-70.7443552450391,False,0.0
63,64,"Lampa, Avenida El Rodeo 1393",Lampa,"Lampa, Puno, Perú",-15.416667,-70.583333,False,1980.3105620639726
64,65,"Santiago, Ciudad del Sol",Santiago,"Ciudad del Sol, Puente Alto, Provincia de Cordillera, Región Metropolitana de Santiago, 8151746, Chile",-33.5959995,-70.58954,True,1.9889568818009906
65,66,"Maipú, (YC 56743)  Los Adobes/(YC 56743) De Lo Infante",Maipú,"Maipú, Provincia de Santiago, Región Metropolitana de Santiago, 9251542, Chile",-33.5094409,-70.756182,False,0.0
66,67,"San Bernardo, San Bernardo",San Bernardo,"San Bernardo, Sumapaz, Cundinamarca, Colombia",4.1785583,-74.4211091,True,411.00166901816095
67,68,"La Florida, Los clarines/las hortencias",La Florida,"La Florida, Provincia de Santiago, Región Metropolitana de Santiago, Chile",-33.530816599999994,-70.54407548567474,False,0.0
68,69,"Puente Alto, Nemesio Vicuña 2504",Puente Alto,"Nemesio Vicuña, Población Nueva Esperanza, Puente Alto, Provincia de Cordillera, Región Metropolitana de Santiago, 8150000, Chile",-33.6111441,-70.5702471,True,0.517108317718207
69,70,"Las Condes, Mall Los Dominicos",Las Condes,"Acceso Estacionamientos Mall Plaza Los Dominicos, Colón Oriente, Las Condes, Provincia de Santiago, Región Metropolitana de Santiago, 7570936, Chile",-33.4165573,-70.5408898,True,2.359397372182835
70,71,"Quilicura, Quilicura, Región Metropolitana",Quilicura,"Quilicura, Provincia de Santiago, Región Metropolitana de Santiago, 8700000, Chile",-33.367767,-70.731549,True,1.8280296019151487
71,72,"Pirque, Av. Virginia Subercaseaux 3600",Pirque,"Pirque, Provincia de Cordillera, Región Metropolitana de Santiago, Chile",-33.6348808,-70.5729961,False,2.8214131263355626
72,73,"San Bernardo, Villa La Campiña de Nos/ San Bernardo",San Bernardo,"San Bernardo, Rio Mayo, Nariño, Colombia",1.533534,-77.01845480416105,False,0.0
73,74,"Pudahuel, Casa 2 Pisos en Pudahuel",Pudahuel,"Pudahuel, Provincia de Santiago, Región Metropolitana de Santiago, Chile",-33.4193729,-70.86335607718577,False,0.0
74,75,"Puente Alto, Profeta Exequiel, Puente Alto",Puente Alto,"Puente Alto, Provincia de Cordillera, Región Metropolitana de Santiago, Chile",-33.6095279,-70.5754736,False,0.0
75,76,"Ñuñoa, Plaza ñuñoa",Ñuñoa,"Plaza Ñuñoa, Población Empleados Públicos y Periodistas Chile-España, Ñuñoa, Provincia de Santiago, Región Metropolitana de Santiago, 7750000, Chile",-33.4547302,-70.59362694954845,True,0.6481357608139191
76,77,"Puente Alto, Puente Alto, Región Metropolitana",Puente Alto,"Puente Alto, Avenida Ejército Libertador, Barrio Suiza, Puente Alto, Provincia de Cordillera, Región Metropolitana de Santiago, 8153644, Chile",-33.5913562,-70.5944307,True,2.675475326195389
77,78,"San Bernardo, A 10 minutos del Mall Plaza Sur",San Bernardo,"San Bernardo, Rio Mayo, Nariño, Colombia",1.533534,-77.01845480416105,False,0.0
78,79,"La Reina, Amplia casa en venta, gran potencial.",La Reina,"La Reina, Provincia de Santiago, Región Metropolitana de Santiago, Chile",-33.4557204,-70.5353594,False,0.0
79,80,"Santiago, Santiago, Región Metropolitana",Santiago,"San Pablo 2966 5to Piso, Santiago, Región Metropolitana, Chile, 2966, Avenida San Pablo, Santiago, Provincia de Santiago, Región Metropolitana de Santiago, 8350485, Chile",-33.4354421,-70.6766162,True,2.4469080872498097
80,81,"La Florida, Av. La florida/san josé de la estrella/cementerio parque el prado",La Florida,"La Florida, Provincia de Santiago, Región Metropolitana de Santiago, Chile",-33.530816599999994,-70.54407548567474,False,0.0
81,82,"Ñuñoa, ¡Mira esto!  Rosita Renard.",Ñuñoa,"Ñuñoa, Provincia de Santiago, Región Metropolitana de Santiago, Chile",-33.4543304,-70.60058198319726,False,0.0
82,83,"Conchalí, Casa esquina en Avenida / 180 m2 / 4 dormitorios / 2 baños",Conchalí,"Conchalí, Provincia de Santiago, Región Metropolitana de Santiago, Chile",-33.3843238,-70.67473455935627,False,0.0
83,84,"San Miguel, San Miguel, Región Metropolitana",San Miguel,"San Miguel, Gran Avenida José Miguel Carrera, San Miguel, Provincia de Santiago, Región Metropolitana de Santiago, 8910183, Chile",-33.4887135,-70.6510759,True,2.4564094696047922
84,85,"Santiago, Ciudad del Niño",Santiago,"Ciudad del Niño, Gran Avenida José Miguel Carrera, San Miguel, Provincia de Santiago, Región Metropolitana de Santiago, 7980008, Chile",-33.5095426,-70.6566393,True,2.3241356299257605
85,86,"Ñuñoa, casa habitacional con patente oficina",Ñuñoa,"Ñuñoa, Provincia de Santiago, Región Metropolitana de Santiago, Chile",-33.4543304,-70.60058198319726,False,0.0
86,87,"Vitacura, Santa María de Manquehue/Parque Antonio Rabat",Vitacura,"Avenida Parque Antonio Rabat Sur, Parque Carolina Rabat, Vitacura, Provincia de Santiago, Región Metropolitana de Santiago, 7660253, Chile",-33.3715249,-70.5784012,True,1.517590782472596
87,88,"La Cisterna, Avenida Fernandez Albano",La Cisterna,"Avenida Fernández Albano, La Cisterna, Provincia de Santiago, Región Metropolitana de Santiago, 7980008, Chile",-33.5242993,-70.6561652,True,0.947168357128698
88,89,"Santiago, Los Castaños",Santiago,"Los Castaños, Parque Residencial Monteandino, Puente Alto, Provincia de Cordillera, Región Metropolitana de Santiago, 8220093, Chile",-33.5916389,-70.524203,True,5.155764453079251
89,90,"Puente Alto, Las vizcachas, monte andino",Puente Alto,"Puente Alto, Provincia de Cordillera, Región Metropolitana de Santiago, Chile",-33.6095279,-70.5754736,False,0.0
90,91,"Puente Alto, Puente Alto, Región Metropolitana",Puente Alto,"Puente Alto, Avenida Ejército Libertador, Barrio Suiza, Puente Alto, Provincia de Cordillera, Región Metropolitana de Santiago, 8153644, Chile",-33.5913562,-70.5944307,True,2.675475326195389
91,92,"Peñaflor, Psje Las Taguas con 21 de Mayo",Peñaflor,"Peñaflor, Sevilla, Andalucía, España",37.7084447,-5.3457347,False,286.5343549052429
92,93,"Buin, Detective Vicente Bourguett Chaverini",Buin,"Buin, Provincia de Maipo, Región Metropolitana de Santiago, Chile",-33.7319741,-70.7419619,False,19.4908754652278
93,94,"La Florida, Los Tulipanes / Las Magnolias",La Florida,"La Florida, Provincia de Santiago, Región Metropolitana de Santiago, Chile",-33.530816599999994,-70.54407548567474,False,0.0
94,95,"Las Condes, Las Condes, Región Metropolitana",Las Condes,"Las Condes, Provincia de Santiago, Región Metropolitana de Santiago, 7550000, Chile",-33.4084548,-70.5671489,True,3.1356123407670626
95,96,"Colina, Estancia Liray, Colina",Colina,"Camino Viejo a Colina, Estancia Liray, San Miguel, Colina, Provincia de Chacabuco, Región Metropolitana de Santiago, Chile",-33.2136511,-70.685356,True,16.640660227598037
96,97,"Las Condes, Cuarto Centenario",Las Condes,"Avenida Cuarto Centenario, La Reina, Las Condes, Provincia de Santiago, Región Metropolitana de Santiago, 7570936, Chile",-33.4290164,-70.5414598,True,2.277312986251988
97,98,"La Cisterna, (YC 56608) Gral Freire/(YC 56608) Fernando Rioja",La Cisterna,"La Cisterna, Provincia de Santiago, Región Metropolitana de Santiago, Chile",-33.529504200000005,-70.66424867440273,False,0.0
98,99,"La Florida, De Los Barbechos 9071",La Florida,"La Florida, Provincia de Santiago, Región Metropolitana de Santiago, Chile",-33.530816599999994,-70.54407548567474,False,0.0
99,100,"Lo Barnechea, Las lomas de la dehesa",Lo Barnechea,"Lo Barnechea, Provincia de Santiago, Región Metropolitana de Santiago, Chile",-33.2935888,-70.39035501440654,False,0.0
100,101,"Santiago, Av. San carlos",Santiago,"Avenida San Carlos, Monteandino 2, Puente Alto, Provincia de Cordillera, Región Metropolitana de Santiago, 8220093, Chile",-33.5912104,-70.5409196,True,3.7965083241194555
101,102,"El Bosque, Francisco de Camargo esquina Lo Blanco",El Bosque,"El Bosque, Chiapas, México",17.0247264,-92.74723009318356,False,0.0
102,103,"Las Condes, Las Condes, Región Metropolitana",Las Condes,"Las Condes, Provincia de Santiago, Región Metropolitana de Santiago, 7550000, Chile",-33.4084548,-70.5671489,True,3.1356123407670626
103,104,"Maipú, Avenida El Rosal",Maipú,"Avenida El Rosal, Santa María de Maipú, Maipú, Provincia de Santiago, Región Metropolitana de Santiago, 9250678, Chile",-33.4897141,-70.7757485,True,2.8448138573034685
104,105,"La Reina, Álvaro Casanova // Talinay",La Reina,"Talinay / Álvaro Casanova, Álvaro Casanova, La Reina, Peñalolén, Provincia de Santiago, Región Metropolitana de Santiago, 7860379, Chile",-33.4592981,-70.5231714,True,1.2005663358143912
105,106,"El Bosque, Av. Lo Martínez 960",El Bosque,"960, Avenida Lo Martínez, Condominio Bicentenario del Bosque, El Bosque, Provincia de Santiago, Región Metropolitana de Santiago, 8010000, Chile",-33.572967649999995,-70.66397119999999,True,3.3729545655932998
106,107,"Macul, Americo Vespucio/San Vicente de Paul",Macul,"Macul, Provincia de Santiago, Región Metropolitana de Santiago, Chile",-33.49194265,-70.59973215756841,False,4.172431762693029
107,108,"Puente Alto, Puente Alto, Región Metropolitana",Puente Alto,"Puente Alto, Avenida Ejército Libertador, Barrio Suiza, Puente Alto, Provincia de Cordillera, Región Metropolitana de Santiago, 8153644, Chile",-33.5913562,-70.5944307,True,2.675475326195389
108,109,"Santiago, Pukara de Lasana",Santiago,"Pukará de Lasana, Barrio Terrandina, Puente Alto, Provincia de Cordillera, Región Metropolitana de Santiago, 8220093, Chile",-33.5891724,-70.5468771,True,3.484572473790968
109,110,"La Florida, Santa marta/trinidad oriente",La Florida,"La Florida, Provincia de Santiago, Región Metropolitana de Santiago, Chile",-33.530816599999994,-70.54407548567474,False,0.0
110,111,"Las Condes, Casa en Alejandro Fleming",Las Condes,"Las Condes, Provincia de Santiago, Región Metropolitana de Santiago, Chile",-33.4247879,-70.51749760753927,False,0.0
111,112,"El Bosque, Pje. Uno 158",El Bosque,"El Bosque, Chiapas, México",17.0247264,-92.74723009318356,False,0.0
112,113,"Maipú, Las tinajas/san josé",Maipú,"Maipú, Provincia de Santiago, Región Metropolitana de Santiago, 9251542, Chile",-33.5094409,-70.756182,False,0.0
113,114,"Ñuñoa, Ñuñoa, Región Metropolitana",Ñuñoa,"Ñuñoa, Avenida Irarrázaval, Población Empleados Públicos y Periodistas Chile-España, Ñuñoa, Provincia de Santiago, Región Metropolitana de Santiago, 7750000, Chile",-33.4541894,-70.604972,True,0.40844543964241736
114,115,"Puente Alto, Lomas del Viento 216",Puente Alto,"Lomas del Viento, Lomas de Eyzaguirre, Puente Alto, Provincia de Cordillera, Región Metropolitana de Santiago, 9480018, Chile",-33.6151529,-70.5363892,True,3.6803906932926487
115,116,"San Bernardo, A 5 minutos del Mall Plaza Sur",San Bernardo,"San Bernardo, Rio Mayo, Nariño, Colombia",1.533534,-77.01845480416105,False,0.0
116,117,"Santiago, Portezuelo del Volcán",Santiago,"Portezuelo del Volcán, Parque Alto II, Puente Alto, Provincia de Cordillera, Región Metropolitana de Santiago, 8220093, Chile",-33.5881402,-70.5324748,True,4.6428008040886155
117,118,"Maipú, German Garcés",Maipú,"Germán Garcés, Villa El Arrayán, Maipú, Provincia de Santiago, Región Metropolitana de Santiago, 9252307, Chile",-33.5261248,-70.7831583,True,3.11532630489161
118,119,"Las Condes, Camino san Antonio 230",Las Condes,"230, Camino San Antonio, Los Frailes, Las Condes, Provincia de Santiago, Región Metropolitana de Santiago, 7690286, Chile",-33.37255095872093,-70.51055820988373,True,5.209731067585627
119,120,"La Florida, P.º Los Sauces 8426",La Florida,"Paseo Los Sauces, Condominio Parque la Portada, La Florida, Provincia de Santiago, Región Metropolitana de Santiago, 022, Chile",-33.5281517,-70.5690348,True,2.337261175738289
120,121,"Santiago, Pie andino",Santiago,"Mirador Pie Andino, Chicureo, Colina, Provincia de Chacabuco, Región Metropolitana de Santiago, Chile",-33.27522355,-70.60996265099867,True,10.495982779795305
121,122,"Pudahuel, Pudahuel, Región Metropolitana",Pudahuel,"Pudahuel, Provincia de Santiago, Región Metropolitana de Santiago, 9020078, Chile",-33.4368017,-70.7517915,True,1.3779336283273957
122,123,"Las Condes, Los Dominicos, excelente sector",Las Condes,"Las Condes, Provincia de Santiago, Región Metropolitana de Santiago, Chile",-33.4247879,-70.51749760753927,False,0.0
123,124,"Cerrillos, Diputado Angel Fantuzzi",Cerrillos,"Diputado Ángel Fantuzzi, Barrio Portal Oeste, Cerrillos, Provincia de Santiago, Región Metropolitana de Santiago, 9140110, Chile",-33.5151941,-70.7023142,True,1.2921916206916704
124,125,"Santiago, Ciudad del Sol",Santiago,"Ciudad del Sol, Puente Alto, Provincia de Cordillera, Región Metropolitana de Santiago, 8151746, Chile",-33.5959995,-70.58954,True,1.9889568818009906
125,126,"Maipú, Inca de oro/Agua Santa",Maipú,"Maipú, Provincia de Santiago, Región Metropolitana de Santiago, 9251542, Chile",-33.5094409,-70.756182,False,0.0
126,127,"Quilicura, san ignasio de loyola 2",Quilicura,"Quilicura, Provincia de Santiago, Región Metropolitana de Santiago, Chile",-33.3552701,-70.7443552450391,False,0.0
127,128,"Santiago, Cerrillos",Santiago,"Cerrillos, Curacaví, Provincia de Melipilla, Región Metropolitana de Santiago, Chile",-33.4544314,-71.0283709,True,0.0
128,129,"Santiago, Santa Teresita",Santiago,"Santa Teresita, Comuna 2, Perímetro Urbano Santiago de Cali, Cali, Sur, Valle del Cauca, Colombia",3.4524011,-76.5477026,True,218.5446630868968
129,130,"Las Condes, Las Condes, Región Metropolitana",Las Condes,"Las Condes, Provincia de Santiago, Región Metropolitana de Santiago, 7550000, Chile",-33.4084548,-70.5671489,True,3.1356123407670626
130,131,"Santiago, Alto pinar",Santiago,"Alto Pinar, Puente Alto, Provincia de Cordillera, Región Metropolitana de Santiago, Chile",-33.59935605,-70.58167961013962,True,1.2667375145198
131,132,"Padre Hurtado, Rio Tolten 630",Padre Hurtado,"Padre Hurtado, Provincia de Talagante, Región Metropolitana de Santiago, Chile",-33.5673051,-70.8020467,False,7.703089651484887
132,133,"Santiago, Virreinato 19",Santiago,"19, Virreinato, Santiago, Provincia de Santiago, Región Metropolitana de Santiago, 8331059, Chile",-33.44944636,-70.63210838,True,2.1410723916241157
133,134,"La Reina, Bramante/Julio Montebruno",La Reina,"La Reina, Provincia de Santiago, Región Metropolitana de Santiago, Chile",-33.4557204,-70.5353594,False,0.0
134,135,"Lampa, Lampa, Región Metropolitana",Lampa,"Villa Alto de Lampa, Lampa, Provincia de Chacabuco, Región Metropolitana de Santiago, Chile",-33.2895953,-70.8705255,True,13.82283696341084
135,136,"Quinta Normal, Radal",Quinta Normal,"Radal, Quinta Normal, Provincia de Santiago, Región Metropolitana de Santiago, WW, Chile",-33.4246841,-70.7029315,True,3.1575861239896215
136,137,"Santiago, Aviñon",Santiago,"Aviñón, Hermosillo, Sonora, 83288, México",29.0687528,-110.9836951,True,1020.7497673232588
137,138,"San Ramón, Casa 2 Pisos en La Bandera",San Ramón,"Cantón San Ramón, Provincia Alajuela, Costa Rica",10.2182194,-84.5714705713932,False,1161.2944561133345
138,139,"Maipú, Villa El Golf, metro Las Parcelas",Maipú,"Maipú, Provincia de Santiago, Región Metropolitana de Santiago, 9251542, Chile",-33.5094409,-70.756182,False,0.0
139,140,"La Pintana, A pasos de Avenida San Francisco",La Pintana,"La Pintana, Provincia de Santiago, Región Metropolitana de Santiago, 8150513, Chile",-33.5833594,-70.629827,False,0.0
140,141,"San Bernardo, San Bernardo, Región Metropolitana",San Bernardo,"San Bernardo, Santa Clara, Melipilla, Provincia de Melipilla, Región Metropolitana de Santiago, Chile",-33.5729125,-71.0848251,True,14.149232574178612
141,142,"Colina, jose rabat 9200",Colina,"Avenida José Rabat, Algarrobos IV, Chicureo, Colina, Provincia de Chacabuco, Región Metropolitana de Santiago, Chile",-33.2734726,-70.6566362,True,10.310659777992258
142,143,"Las Condes, Hermanos Cabot",Las Condes,"Hermanos Cabot, Gran Bretaña, Las Condes, Provincia de Santiago, Región Metropolitana de Santiago, 7550000, Chile",-33.3943192,-70.5577513,True,1.7350201555512028
143,144,"Santiago, Hamburgo, Simón Bolívar",Santiago,"Simón Bolívar / Hamburgo, Hamburgo, Los Adoquines, Ñuñoa, Provincia de Santiago, Región Metropolitana de Santiago, 7790108, Chile",-33.447928,-70.5768992,True,2.3135720556891846
144,145,"Lo Barnechea, Excelente ubicación/el tranque",Lo Barnechea,"Lo Barnechea, Provincia de Santiago, Región Metropolitana de Santiago, Chile",-33.2935888,-70.39035501440654,False,0.0
145,146,"Quinta Normal, Catedral",Quinta Normal,"Catedral, Quinta Normal, Provincia de Santiago, Región Metropolitana de Santiago, WW, Chile",-33.4439969,-70.7014043,True,2.0786195886478613
146,147,"La Florida, La Serena 11180",La Florida,"La Florida, Monterrubio de la Serena, Badajoz, Extremadura, España",38.5789896,-5.5658756,True,187.99684201782156
147,148,"Puente Alto, Av las nieves ote - av corbeta norte (am-57101)/av méxico (am)",Puente Alto,"Puente Alto, Provincia de Cordillera, Región Metropolitana de Santiago, Chile",-33.6095279,-70.5754736,False,0.0
148,149,"Isla de Maipo, Sector Galvez",Isla de Maipo,"Isla de Maipo, Provincia de Talagante, Región Metropolitana de Santiago, 9790152, Chile",-33.7537387,-70.9039325,False,30.366796716806242
149,150,"Vitacura, Colegio aleman-geronimo de alderete",Vitacura,"Vitacura, Provincia de Santiago, Región Metropolitana de Santiago, Chile",-33.3802063,-70.56579553780725,False,0.0
150,151,"Santiago, Metro ñuble",Santiago,"Santiago, Provincia de Santiago, Región Metropolitana de Santiago, 8320000, Chile",-33.4377756,-70.6504502,False,0.0
151,152,"Peñalolén, Los Alerces , Consominio La Foresta",Peñalolén,"Peñalolén, Provincia de Santiago, Región Metropolitana de Santiago, Chile",-33.48622465,-70.50929029561439,False,0.0
152,153,"Puente Alto, Pasaje 6",Puente Alto,"Pasaje 6, Barrio Terrandina, Puente Alto, Provincia de Cordillera, Región Metropolitana de Santiago, 8220093, Chile",-33.5889051,-70.547185,True,3.48225927903044
153,154,"Maipú, Roberto llona(ag)/aves del paraiso",Maipú,"Maipú, Provincia de Santiago, Región Metropolitana de Santiago, 9251542, Chile",-33.5094409,-70.756182,False,0.0
154,155,"Quilicura, Av. Las Torres 74",Quilicura,"Avenida Las Torres, Recsa, Quilicura, Provincia de Santiago, Región Metropolitana de Santiago, 8700000, Chile",-33.3703329,-70.7210749,True,2.735961177314077
155,156,"Colina, Chamisero/ Los Maitenes",Colina,"Los Maitenes, Valle Norte de Chamisero, Chamisero, Colina, Provincia de Chacabuco, Región Metropolitana de Santiago, 8600651, Chile",-33.3138041,-70.6527476,True,5.830303644034521
156,157,"Peñalolén, Av Consistorial/Las Parcelas",Peñalolén,"Consistorial / Las Parcelas, Avenida Consistorial, Población El Estanque, Peñalolén, Provincia de Santiago, Región Metropolitana de Santiago, 7940068, Chile",-33.4718243,-70.5417834,True,1.8833160778637483
157,158,"El Monte, Pasaje constitucion",El Monte,"Pasaje La Constitución, Villa Los Párrocos, Aníbal Pinto, El Monte, Provincia de Talagante, Región Metropolitana de Santiago, Chile",-33.6763114,-70.9898769,True,24.867927542186823
158,159,"Estación Central, Calle Bahia",Estación Central,"Estación Central, Calle 39A, Reparto Abel Santa Maria, Nueva Gerona, Isla de la Juventud, 25300, Cuba",21.8915726,-82.8088565,True,1173.888309499386
159,160,"Peñalolén, amplia y hermosa casa con vista a la cordillera",Peñalolén,"Peñalolén, Provincia de Santiago, Región Metropolitana de Santiago, Chile",-33.48622465,-70.50929029561439,False,0.0
160,161,"Buin, Caletera 5 sur/Av . San Sebastian",Buin,"Buin, Provincia de Maipo, Región Metropolitana de Santiago, Chile",-33.7319741,-70.7419619,False,19.4908754652278
161,162,"Recoleta, Zapadores",Recoleta,"Zapadores, Avenida Recoleta, Recoleta, Provincia de Santiago, Región Metropolitana de Santiago, 7690000, Chile",-33.391,-70.6424353,True,2.804048025277241
162,163,"Huechuraba, Universidad Mayor",Huechuraba,"Universidad Mayor, 5750, Camino La Pirámide, Población El Barrero, Huechuraba, Provincia de Santiago, Región Metropolitana de Santiago, 8580670, Chile",-33.37714085,-70.61551285070543,True,2.848253998245904
163,164,"Santiago, Luis Matte Larraín",Santiago,"Luis Matte Larraín, Villa Don Ramón, Puente Alto, Provincia de Cordillera, Región Metropolitana de Santiago, 8220093, Chile",-33.5834309,-70.5495942,True,3.7614565885120115
164,165,"Puente Alto, El Peral/Martin Pescador",Puente Alto,"Puente Alto, Provincia de Cordillera, Región Metropolitana de Santiago, Chile",-33.6095279,-70.5754736,False,0.0
165,166,"Puente Alto, Puente Alto, Región Metropolitana",Puente Alto,"Puente Alto, Avenida Ejército Libertador, Barrio Suiza, Puente Alto, Provincia de Cordillera, Región Metropolitana de Santiago, 8153644, Chile",-33.5913562,-70.5944307,True,2.675475326195389
166,167,"La Granja, dos oriente",La Granja,"La Granja, Trasierra-Tierras de Granadilla, Cáceres, Extremadura, 10748, España",40.2393229,-5.9946107,False,0.0
167,168,"San Bernardo, Miguel Luis Amunátegui",San Bernardo,"Pasaje Miguel Luis Amunátegui, San Bernardo, Provincia de Maipo, Región Metropolitana de Santiago, 648, Chile",-33.6029836,-70.6797855,True,5.122708551199835
168,169,"Santiago, Almirante Latorre",Santiago,"Almirante Latorre, Barrio República, Santiago, Provincia de Santiago, Región Metropolitana de Santiago, 8320000, Chile",-33.4513637,-70.6646176,True,2.001654336436412
169,170,"Santiago, Pedro Lagos con Lord Cochrane",Santiago,"Santiago, Provincia de Santiago, Región Metropolitana de Santiago, 8320000, Chile",-33.4377756,-70.6504502,False,0.0
170,171,"Maipú, Casa en Maipu",Maipú,"Maipú, Provincia de Santiago, Región Metropolitana de Santiago, 9251542, Chile",-33.5094409,-70.756182,False,0.0
171,172,"Las Condes, Torremolinos/Los Dominicos",Las Condes,"Las Condes, Provincia de Santiago, Región Metropolitana de Santiago, Chile",-33.4247879,-70.51749760753927,False,0.0
172,173,"La Reina, Av. Echeñique 5995",La Reina,"Avenida Echeñique, La Reina, Provincia de Santiago, Región Metropolitana de Santiago, 7860379, Chile",-33.4427702,-70.5389423,True,1.4744633712041493
173,174,"Maipú, Maipú, Región Metropolitana",Maipú,"Maipú, Provincia de Santiago, Región Metropolitana de Santiago, 9251542, Chile",-33.5094409,-70.756182,True,0.0
174,175,"Colina, Colegio San Anselmo/Piedra Roja",Colina,"Colina, Região Imediata de Barretos, Região Geográfica Intermediária de Ribeirão Preto, São Paulo, Região Sudeste, 14770-000, Brasil",-20.711443,-48.53867,False,1816.8198646604321
175,176,"Lampa, Villa Los Girasoles 2",Lampa,"Barros Luco, Villa Wetripantu, La Campiña Oriente, Lampa, Provincia de Chacabuco, Región Metropolitana de Santiago, Chile",-33.2817942,-70.873087,True,14.49473993805051
176,177,"Puente Alto, Lomas de Eyzaguirre",Puente Alto,"Lomas de Eyzaguirre, Puente Alto, Provincia de Cordillera, Región Metropolitana de Santiago, 9480018, Chile",-33.6135471,-70.5394149,True,3.375925402070763
177,178,"Recoleta, Frente a Municipalidad de Recoleta",Recoleta,"Recoleta, Provincia de Santiago, Región Metropolitana de Santiago, Chile",-33.405882899999995,-70.63270330089452,False,3.903427042847559
178,179,"Las Condes, Nva delhi",Las Condes,"Las Condes, Provincia de Santiago, Región Metropolitana de Santiago, Chile",-33.4247879,-70.51749760753927,False,0.0
179,180,"San Joaquín, Avenida Lo Ovalle",San Joaquín,"Avenida Lo Ovalle, San Joaquín, Provincia de Santiago, Región Metropolitana de Santiago, 8231472, Chile",-33.5172259,-70.6261272,True,3.7942125684459236
180,181,"El Bosque, Madrid (ag)/imperial",El Bosque,"El Bosque, Chiapas, México",17.0247264,-92.74723009318356,False,0.0
181,182,"Las Condes, Las Condes, Región Metropolitana",Las Condes,"Las Condes, Provincia de Santiago, Región Metropolitana de Santiago, 7550000, Chile",-33.4084548,-70.5671489,True,3.1356123407670626
182,183,"San Bernardo, Camino nos los morros/san jose",San Bernardo,"San Bernardo, Rio Mayo, Nariño, Colombia",1.533534,-77.01845480416105,False,0.0
183,184,"La Florida, Sinaí",La Florida,"Mount Sinai Missionary Baptist Church, East Cervantes Street, East Hill, Pensacola, Escambia County, Florida, 32503, United States",30.4224201,-87.2124704,True,1586.8613170445938
184,185,"Colina, Caletera San Martín/Ayres de Chicureo",Colina,"Colina, Região Imediata de Barretos, Região Geográfica Intermediária de Ribeirão Preto, São Paulo, Região Sudeste, 14770-000, Brasil",-20.711443,-48.53867,False,1816.8198646604321
185,186,"Las Condes, Huara huara con Latadia",Las Condes,"Las Condes, Provincia de Santiago, Región Metropolitana de Santiago, Chile",-33.4247879,-70.51749760753927,False,0.0
186,187,"San Bernardo, Condominio Cumbres de Nos",San Bernardo,"San Bernardo, Rio Mayo, Nariño, Colombia",1.533534,-77.01845480416105,False,0.0
187,188,"La Florida, Santa raquel/trinidad/ las gardenias",La Florida,"La Florida, Provincia de Santiago, Región Metropolitana de Santiago, Chile",-33.530816599999994,-70.54407548567474,False,0.0
188,189,"Calera de Tango, Rio bueno",Calera de Tango,"Calle Río Bueno, Villa Puerta del Inca, Calera de Tango, Provincia de Maipo, Región Metropolitana de Santiago, Chile",-33.6304309,-70.7775433,True,13.5653355586826
189,190,"Curacaví, Curacaví, Región Metropolitana",Curacaví,"Las Lomas de Curacaví, Curacaví, Provincia de Melipilla, Región Metropolitana de Santiago, Chile",-33.3946803,-71.1691385,True,14.673593034776275
190,191,"Vitacura, Entre La Llavería y Lo Matta",Vitacura,"Vitacura, Provincia de Santiago, Región Metropolitana de Santiago, Chile",-33.3802063,-70.56579553780725,False,0.0
191,192,"Puente Alto, Avenida San Carlos",Puente Alto,"Avenida San Carlos, Monteandino 2, Puente Alto, Provincia de Cordillera, Región Metropolitana de Santiago, 8220093, Chile",-33.5912104,-70.5409196,True,3.7965083241194555
192,193,"Santiago, General Gana, Carmen Santiago",Santiago,"Santiago, Provincia de Santiago, Región Metropolitana de Santiago, 8320000, Chile",-33.4377756,-70.6504502,False,0.0
193,194,"Las Condes, Toconao - alejandro fleming (am)/iv centenario (am)",Las Condes,"Las Condes, Provincia de Santiago, Región Metropolitana de Santiago, Chile",-33.4247879,-70.51749760753927,False,0.0
194,195,"Puente Alto, Piloto Pardo",Puente Alto,"Piloto Pardo, Población El Tranque, Puente Alto, Provincia de Cordillera, Región Metropolitana de Santiago, 8150000, Chile",-33.6080823,-70.5899444,True,1.352516499158539
195,196,"La Florida, Metro Bella Vista La Florida/Vicuña Mackenna",La Florida,"La Florida, Provincia de Santiago, Región Metropolitana de Santiago, Chile",-33.530816599999994,-70.54407548567474,False,0.0
196,197,"Colina, Colina, Región Metropolitana",Colina,"Santa Luz de Colina, Las Canteras, Colina, Provincia de Chacabuco, Región Metropolitana de Santiago, Chile",-33.2955071,-70.6966803,True,7.9774079935768105
197,198,"Las Condes, Padre Hurtado sur",Las Condes,"Las Condes, Provincia de Santiago, Región Metropolitana de Santiago, Chile",-33.4247879,-70.51749760753927,False,0.0
198,199,"Cerrillos, 12 de febrero 6157 cerrillos.",Cerrillos,"Cerrillos, Curacaví, Provincia de Melipilla, Región Metropolitana de Santiago, Chile",-33.4544314,-71.0283709,False,0.0
199,200,"Independencia, Gral. Saavedra",Independencia,"Independencia, República Dominicana",18.3839463,-71.6385932,False,0.0
200,201,"Cerro Navia, La hondonada (ag)/la estrella",Cerro Navia,"Cerro Navia, Provincia de Santiago, Región Metropolitana de Santiago, Chile",-33.4253465,-70.74605615789243,False,0.0
201,202,"Las Condes, Luxemburgo/Almirante Miguel Aguirre",Las Condes,"Las Condes, Provincia de Santiago, Región Metropolitana de Santiago, Chile",-33.4247879,-70.51749760753927,False,0.0
202,203,"Til til, Tiltil, Región Metropolitana",Til til,"Cementerio Til Til, Los Litres, Tiltil, Provincia de Chacabuco, Región Metropolitana de Santiago, Chile",-33.090046599999994,-70.91509770280868,True,33.44545157215833
203,204,"La Reina, Blest gana",La Reina,"La Reina, Provincia de Santiago, Región Metropolitana de Santiago, Chile",-33.4557204,-70.5353594,False,0.0
204,205,"Puente Alto, Puente Alto, Región Metropolitana",Puente Alto,"Puente Alto, Avenida Ejército Libertador, Barrio Suiza, Puente Alto, Provincia de Cordillera, Región Metropolitana de Santiago, 8153644, Chile",-33.5913562,-70.5944307,True,2.675475326195389
205,206,"Calera de Tango, Calera de Tango, Región Metropolitana",Calera de Tango,"Portal Calera de Tango, Calera de Tango, Provincia de Maipo, Región Metropolitana de Santiago, Chile",-33.6257934,-70.77724357192525,True,13.052517594000804
206,207,"Talagante, Talagante",Talagante,"Talagante, Provincia de Talagante, Región Metropolitana de Santiago, 9670000, Chile",-33.6644399,-70.9302014,True,23.590477392002594
207,208,"La Florida, Las Hortensias",La Florida,"Las Hortensias, Antigua Florida, La Florida, Provincia de Santiago, Región Metropolitana de Santiago, 022, Chile",-33.531916,-70.5764899,True,3.013411221562499
208,209,"Santiago, República",Santiago,"República, Ciclovía Alameda, Barrio República, Santiago, Provincia de Santiago, Región Metropolitana de Santiago, 8370968, Chile",-33.4477206,-70.6671424,True,1.9041221667461268
209,210,"Colina, Tierras Lindas",Colina,"Tierras Lindas, Santa Elena, Colina, Provincia de Chacabuco, Región Metropolitana de Santiago, Chile",-33.2168073,-70.7365251,True,15.374159352347757
210,211,"Colina, Condominio peumayen",Colina,"Condominio Peumayén, Colina, Provincia de Chacabuco, Región Metropolitana de Santiago, Chile",-33.22816065,-70.67003950653965,True,15.464401516232858
211,212,"San Joaquín, Pintor Durero, San Joaquín",San Joaquín,"San Joaquín, Querétaro, México",20.9990848,-99.49131848151762,False,835.0886502751571
212,213,"La Florida, Walker Martinez",La Florida,"Avenida Walker Martínez, Condominio Parque la Portada, La Florida, Provincia de Santiago, Región Metropolitana de Santiago, 022, Chile",-33.5222924,-70.5591877,True,1.692523637780852
213,214,"Vitacura, Las hualtatas/gerónimo de alderete",Vitacura,"Vitacura, Provincia de Santiago, Región Metropolitana de Santiago, Chile",-33.3802063,-70.56579553780725,False,0.0
214,215,"Buin, Victor Troncoso Muñoz",Buin,"Avenida Víctor Troncoso Muñoz, Los Almendros, Bajos de Matte, Buin, Provincia de Maipo, Región Metropolitana de Santiago, Chile",-33.7355701,-70.7169449,True,18.716713890462948
215,216,"Quilicura, Bogotá",Quilicura,"Pasaje Bogotá, Los Jardines, Quilicura, Provincia de Santiago, Región Metropolitana de Santiago, 8700000, Chile",-33.3553436,-70.7194145,True,2.321420118646043
216,217,"Pudahuel, federico errazuriz",Pudahuel,"Federico Errázuriz, Pudahuel, Provincia de Santiago, Región Metropolitana de Santiago, 9020078, Chile",-33.4419179,-70.7641008,True,2.4887603562597143
217,218,"Las Condes, Republica de honduras/cerro catedral sur",Las Condes,"Las Condes, Provincia de Santiago, Región Metropolitana de Santiago, Chile",-33.4247879,-70.51749760753927,False,0.0
218,219,"Colina, Esmeralda",Colina,"Esmeralda, Colina, Provincia de Chacabuco, Región Metropolitana de Santiago, Chile",-33.1812793,-70.6546727,True,20.48560253266348
219,220,"Lo Barnechea, Teresa de Avila",Lo Barnechea,"Lo Barnechea, Provincia de Santiago, Región Metropolitana de Santiago, Chile",-33.2935888,-70.39035501440654,False,0.0
220,221,"Estación Central, Padre Vicente Irarrazabal/Avenida 5 de Abril",Estación Central,"Estación Central, Provincia de Santiago, Región Metropolitana de Santiago, Chile",-33.4629494,-70.70490935867974,False,0.0
221,222,"Santiago, Santiago, Región Metropolitana",Santiago,"San Pablo 2966 5to Piso, Santiago, Región Metropolitana, Chile, 2966, Avenida San Pablo, Santiago, Provincia de Santiago, Región Metropolitana de Santiago, 8350485, Chile",-33.4354421,-70.6766162,True,2.4469080872498097
222,223,"San Bernardo, Camino Los Morros/Padre Hurtado",San Bernardo,"Los Morros / Camino Padre Hurtado, Camino Padre Hurtado, San Francisco de Nos, San Bernardo, Provincia de Maipo, Región Metropolitana de Santiago, 648, Chile",-33.6367197,-70.6743725,True,7.219322886135943
223,224,"Santiago, Manuel Rodríguez",Santiago,"Manuel Rodríguez, Colina, Provincia de Chacabuco, Región Metropolitana de Santiago, Chile",-33.2306042,-70.6917161,True,14.670226793000554
224,225,"Lo Barnechea, Jardin de la dehesa/el tranque",Lo Barnechea,"El Tranque, Jardín La Dehesa, Lo Barnechea, Provincia de Santiago, Región Metropolitana de Santiago, 7690286, Chile",-33.3591879,-70.5246838,True,4.480182785338288
225,226,"El Bosque, Av peñuelas (am)/av padre hurtado (am)",El Bosque,"El Bosque, Chiapas, México",17.0247264,-92.74723009318356,False,0.0
226,227,"La Florida, La Llanura 8881",La Florida,"La Llanura, La Florida, Provincia de Santiago, Región Metropolitana de Santiago, 022, Chile",-33.5346447,-70.5671691,True,2.1867260798666606
227,228,"La Reina, Carlos Silva Vildosola",La Reina,"Carlos Silva Vildósola, La Reina, Santiago, Provincia de Santiago, Región Metropolitana de Santiago, 8320000, Chile",-33.4376168,-70.5475562,True,2.3060342946004146
228,229,"Estación Central, Padre Vives & Guillermo Franke",Estación Central,"Estación Central, Provincia de Santiago, Región Metropolitana de Santiago, Chile",-33.4629494,-70.70490935867974,False,0.0
229,230,"Ñuñoa, Metro Simón Bolívar / Echeñique",Ñuñoa,"Ñuñoa, Provincia de Santiago, Región Metropolitana de Santiago, Chile",-33.4543304,-70.60058198319726,False,0.0
230,231,"La Reina, Santa Rita con Echeñique",La Reina,"La Reina, Provincia de Santiago, Región Metropolitana de Santiago, Chile",-33.4557204,-70.5353594,False,0.0
231,232,"Santiago, Vicuña Rozas 6473",Santiago,"6473, Vicuña Rozas, Cerro Navia, Provincia de Santiago, Región Metropolitana de Santiago, 9010290, Chile",-33.432470406250005,-70.7278699375,True,1.7084436952764739
232,233,"La Reina, Monseñor Edwards/Simon Bolivar",La Reina,"Monseñor Edwards / Simón Bolívar, Avenida Simón Bolívar, La Reina, Provincia de Santiago, Región Metropolitana de Santiago, 7850633, Chile",-33.4463194,-70.5612324,True,2.6217957125413913
233,234,"Las Condes, Luis Matte Larrain con General Blanche",Las Condes,"Las Condes, Provincia de Santiago, Región Metropolitana de Santiago, Chile",-33.4247879,-70.51749760753927,False,0.0
234,235,"Curacaví, Condominio Los Solares Curacavi",Curacaví,"Curacaví, Provincia de Melipilla, Región Metropolitana de Santiago, 8340431, Chile",-33.4022289,-71.1293733,False,11.034202569131843
235,236,"Huechuraba, Av pedro fontova/sta elena de huechuraba",Huechuraba,"Huechuraba, Provincia de Santiago, Región Metropolitana de Santiago, Chile",-33.365721449999995,-70.6429271186091,False,0.0
236,237,"La Florida, Los Tordos & Las Tencas",La Florida,"La Florida, Provincia de Santiago, Región Metropolitana de Santiago, Chile",-33.530816599999994,-70.54407548567474,False,0.0
237,238,"La Florida, La Florida, Región Metropolitana",La Florida,"La Florida, Provincia de Santiago, Región Metropolitana de Santiago, 8240000, Chile",-33.5204181,-70.6006178,True,5.377640970424753
238,239,"Santiago, metro ñuble",Santiago,"Santiago, Provincia de Santiago, Región Metropolitana de Santiago, 8320000, Chile",-33.4377756,-70.6504502,False,0.0
239,240,"La Florida, Luna & Diagonal Santa Irene",La Florida,"La Florida, Provincia de Santiago, Región Metropolitana de Santiago, Chile",-33.530816599999994,-70.54407548567474,False,0.0
240,241,"San Bernardo, San Bernardo, Región Metropolitana",San Bernardo,"San Bernardo, Santa Clara, Melipilla, Provincia de Melipilla, Región Metropolitana de Santiago, Chile",-33.5729125,-71.0848251,True,14.149232574178612
241,242,"Pudahuel, Lomas de lo Aguirre",Pudahuel,"Lomas de Lo Aguirre, Pudahuel, Provincia de Santiago, Región Metropolitana de Santiago, Chile",-33.456601,-70.8219909,True,5.643102975155841
242,243,"Vitacura, Colegio Manquehue, acepta ofertas",Vitacura,"Vitacura, Provincia de Santiago, Región Metropolitana de Santiago, Chile",-33.3802063,-70.56579553780725,False,0.0
243,244,"Quinta Normal, Sta. Petronila 832",Quinta Normal,"832, Santa Petronila, Quinta Normal, Provincia de Santiago, Región Metropolitana de Santiago, 8500445, Chile",-33.4435820979798,-70.70536888383839,True,1.7281821912907276
244,245,"Maipú, Los Generales, Maipú",Maipú,"Maipú, Provincia de Santiago, Región Metropolitana de Santiago, 9251542, Chile",-33.5094409,-70.756182,False,0.0
245,246,"Colina, Colina, Región Metropolitana",Colina,"Santa Luz de Colina, Las Canteras, Colina, Provincia de Chacabuco, Región Metropolitana de Santiago, Chile",-33.2955071,-70.6966803,True,7.9774079935768105
246,247,"La Granja, Elqui",La Granja,"Elqui, La Granja, Provincia de Santiago, Región Metropolitana de Santiago, 7980008, Chile",-33.530579,-70.6325427,True,2.947593299641241
247,248,"San Bernardo, El Avellano",San Bernardo,"El Avellano, Barrio Nuevo de Nos, San Bernardo, Provincia de Maipo, Región Metropolitana de Santiago, 648, Chile",-33.642091,-70.6987857,True,9.131752678109766
248,249,"Padre Hurtado, Padre Hurtado",Padre Hurtado,"Padre Hurtado, Villa Padre Hurtado, San Pedro de la Paz, Provincia de Concepción, Región del Biobío, 4600000, Chile",-36.8237799,-73.1319434,True,420.0649985522887
249,250,"Lo Barnechea, Condominio en El Arrayán",Lo Barnechea,"Lo Barnechea, Provincia de Santiago, Región Metropolitana de Santiago, Chile",-33.2935888,-70.39035501440654,False,0.0
250,251,"Puente Alto, Cordillera de Nahuelbuta",Puente Alto,"Cordillera de Nahuelbuta, Plaza Viva, Puente Alto, Provincia de Cordillera, Región Metropolitana de Santiago, 8220093, Chile",-33.5935512,-70.5469612,True,3.1848621662490926
251,252,"Ñuñoa, José Luis Araneda // Simón Bolivar",Ñuñoa,"Ñuñoa, Provincia de Santiago, Región Metropolitana de Santiago, Chile",-33.4543304,-70.60058198319726,False,0.0
252,253,"Huechuraba, Avenida Pedro Fontova",Huechuraba,"Avenida Pedro Fontova, Condominio Terranorte, Huechuraba, Provincia de Santiago, Región Metropolitana de Santiago, 8600651, Chile",-33.3531338,-70.6705266,True,2.9236278376368565
253,254,"Ñuñoa, Ñuñoa, Región Metropolitana",Ñuñoa,"Ñuñoa, Avenida Irarrázaval, Población Empleados Públicos y Periodistas Chile-España, Ñuñoa, Provincia de Santiago, Región Metropolitana de Santiago, 7750000, Chile",-33.4541894,-70.604972,True,0.40844543964241736
254,255,"Vitacura, padre hurtado norte/lo beltran",Vitacura,"Lo Beltran / Padre Hurtado Norte, Avenida Padre Hurtado Norte, El Dorado, Vitacura, Provincia de Santiago, Región Metropolitana de Santiago, 7650191, Chile",-33.3818599,-70.5523652,True,1.2630719076490922
255,256,"La Cisterna, Andacollo 9131",La Cisterna,"Pasaje Andacollo, La Cisterna, Provincia de Santiago, Región Metropolitana de Santiago, 7970670, Chile",-33.5422552,-70.658833,True,1.5010611816258403
256,257,"Estación Central, Alpatacal (am-52072)/padre vicente irarrázabal (am)",Estación Central,"Estación Central, Provincia de Santiago, Región Metropolitana de Santiago, Chile",-33.4629494,-70.70490935867974,False,0.0
257,258,"Ñuñoa, Jose pedro alessandri con rodrigo de araya",Ñuñoa,"Ñuñoa, Provincia de Santiago, Región Metropolitana de Santiago, Chile",-33.4543304,-70.60058198319726,False,0.0
258,259,"Santiago, Cerro Alvarado 1572",Santiago,"1572, Cerro Alvarado, La Florida, Provincia de Santiago, Región Metropolitana de Santiago, 8250736, Chile",-33.5498166,-70.6097046,True,4.163190691254934
259,260,"Recoleta, Calle Valdivieso",Recoleta,"Recoleta, Provincia de Santiago, Región Metropolitana de Santiago, Chile",-33.405882899999995,-70.63270330089452,False,3.903427042847559
260,261,"Santiago, Cautín 1184",Santiago,"1184, Cautín, Barrio Brasil, Santiago, Provincia de Santiago, Región Metropolitana de Santiago, 8350485, Chile",-33.43140348630137,-70.67033415616439,True,1.9795195662962188
261,262,"La Florida, La Florida, Región Metropolitana",La Florida,"La Florida, Provincia de Santiago, Región Metropolitana de Santiago, 8240000, Chile",-33.5204181,-70.6006178,True,5.377640970424753
262,263,"San Miguel, San Miguel, Región Metropolitana",San Miguel,"San Miguel, Gran Avenida José Miguel Carrera, San Miguel, Provincia de Santiago, Región Metropolitana de Santiago, 8910183, Chile",-33.4887135,-70.6510759,True,2.4564094696047922
263,264,"Quilicura, Fuerteventura",Quilicura,"Fuerteventura, El Alba de Campino, Quilicura, Provincia de Santiago, Región Metropolitana de Santiago, 8700000, Chile",-33.3873569,-70.7275259,True,1.8212908493992508
264,265,"Las Condes, Avenida Las Condes y Avenida Padre Hurtado",Las Condes,"Las Condes, Provincia de Santiago, Región Metropolitana de Santiago, Chile",-33.4247879,-70.51749760753927,False,0.0
265,266,"Puente Alto, Protectora de la infancia",Puente Alto,"Protectora de la Infancia, Corredor Transporte Público Concha y Toro, Villa La Foresta I, Puente Alto, Provincia de Cordillera, Región Metropolitana de Santiago, 8151746, Chile",-33.5895498,-70.5798638,True,2.2530291366528026
266,267,"Maipú, Batallón Atacama",Maipú,"Pasaje Batallón Atacama Sur, Condominio Los araucanos, Maipú, Provincia de Santiago, Región Metropolitana de Santiago, 9250000, Chile",-33.5075358,-70.7924565,True,3.3770068843074657
267,268,"Padre Hurtado, Padre Hurtado, Región Metropolitana",Padre Hurtado,"Padre Hurtado, 2341, Llongol, Villa Padre Hurtado, Puente Alto, Provincia de Cordillera, Región Metropolitana de Santiago, 8153644, Chile",-33.5934629,-70.6023518,True,2.7858019501624254
268,269,"Colina, Esmeralda/Aconcagua",Colina,"Colina, Região Imediata de Barretos, Região Geográfica Intermediária de Ribeirão Preto, São Paulo, Região Sudeste, 14770-000, Brasil",-20.711443,-48.53867,False,1816.8198646604321
269,270,"San Bernardo, Av eliodoro yañez  (am)/lo herrera (am)",San Bernardo,"San Bernardo, Rio Mayo, Nariño, Colombia",1.533534,-77.01845480416105,False,0.0
270,271,"San Bernardo, Villa Juvencio Valle",San Bernardo,"San Bernardo, Rio Mayo, Nariño, Colombia",1.533534,-77.01845480416105,False,0.0
271,272,"Maipú, Filodendro Sur",Maipú,"El Filodendro Sur, Condominio Magallanes, Maipú, Provincia de Santiago, Región Metropolitana de Santiago, 9710000, Chile",-33.5671326,-70.782799,True,6.8597985736804326
272,273,"Peñalolén, Peñalolén, Región Metropolitana",Peñalolén,"Peñalolén, Provincia de Santiago, Región Metropolitana de Santiago, 7940068, Chile",-33.4765918,-70.5418308,True,2.3917932880342057
273,274,"Lo Barnechea, Bernardo Larrain Cotapos",Lo Barnechea,"Avenida Bernardo Larraín Cotapos, Quillayes de La Dehesa, Lo Barnechea, Provincia de Santiago, Región Metropolitana de Santiago, 7700651, Chile",-33.3416428,-70.522152,True,5.898564172092133
274,275,"Estación Central, Estacion Central",Estación Central,"Estación Central, Provincia de Santiago, Región Metropolitana de Santiago, 9160002, Chile",-33.4536375,-70.6898654,True,1.7386067043713147
275,276,"Renca, Orientación estimativa entre Costanera norte y José Miguel Infante",Renca,"Renca, Provincia de Santiago, Región Metropolitana de Santiago, Chile",-33.4035274,-70.73093305460753,False,0.0
276,277,"Independencia, Alonso de Reinoso 2351",Independencia,"Alonso de Reinoso, Independencia, Provincia de Santiago, Región Metropolitana de Santiago, 8380741, Chile",-33.4023943,-70.6621049,True,2.323270605851045
277,278,"Puente Alto, Casa 2 Pisos en Avda. Gabriela",Puente Alto,"Puente Alto, Provincia de Cordillera, Región Metropolitana de Santiago, Chile",-33.6095279,-70.5754736,False,0.0
278,279,"Vitacura, Las Hualtatas - Texas",Vitacura,"Texas / Las Hualtatas, Las Hualtatas, El Dorado, Vitacura, Provincia de Santiago, Región Metropolitana de Santiago, 7640509, Chile",-33.390448,-70.559939,True,1.2598628288985239
279,280,"La Florida, Avenida Santa Amalia - Colombia",La Florida,"Santa Amalia / Colombia, Avenida Colombia, Antigua Florida, La Florida, Provincia de Santiago, Región Metropolitana de Santiago, 8240000, Chile",-33.5430481,-70.580937,True,3.682792918372442
280,281,"Renca, Punta de Angamos",Renca,"Pasaje Punta de Angamos, La Hacienda de Renca, Renca, Provincia de Santiago, Región Metropolitana de Santiago, 9090184, Chile",-33.3992018,-70.7520809,True,2.024990189475305
281,282,"Vitacura, Gran vía/el canal",Vitacura,"Vitacura, Provincia de Santiago, Región Metropolitana de Santiago, Chile",-33.3802063,-70.56579553780725,False,0.0
282,283,"Santiago, Chañarcillo 9067",Santiago,"9067, Chañarcillo, Pudahuel, Provincia de Santiago, Región Metropolitana de Santiago, 9020078, Chile",-33.436235142424245,-70.76169724040405,True,1.8905702856127393
283,284,"La Florida, Los Quillayes/Santa Raquel",La Florida,"La Florida, Provincia de Santiago, Región Metropolitana de Santiago, Chile",-33.530816599999994,-70.54407548567474,False,0.0
284,285,"Santiago, Santiago, Región Metropolitana",Santiago,"San Pablo 2966 5to Piso, Santiago, Región Metropolitana, Chile, 2966, Avenida San Pablo, Santiago, Provincia de Santiago, Región Metropolitana de Santiago, 8350485, Chile",-33.4354421,-70.6766162,True,2.4469080872498097
285,286,"Puente Alto, Altos del raco, cordillera",Puente Alto,"Puente Alto, Provincia de Cordillera, Región Metropolitana de Santiago, Chile",-33.6095279,-70.5754736,False,0.0
286,287,"El Bosque, paradero 34 y medio de gran avenida",El Bosque,"El Bosque, Chiapas, México",17.0247264,-92.74723009318356,False,0.0
287,288,"La Florida, Alto macul",La Florida,"Alto Macul, La Florida, Provincia de Santiago, Región Metropolitana de Santiago, 7940697, Chile",-33.5153507,-70.5325828,True,2.020495650127916
288,289,"La Reina, Nueva!!! maria monvel, carlos silva vildosola, sin comision",La Reina,"La Reina, Provincia de Santiago, Región Metropolitana de Santiago, Chile",-33.4557204,-70.5353594,False,0.0
289,290,"El Monte, (amm-56797) cam. A melipilla - el monte/(amm) condominio mediterraneo",El Monte,"El Monte, Los Angeles County, California, 91731, United States",34.0751571,-118.036849,False,518.5641545258903
290,291,"Quilicura, Los Húsares",Quilicura,"Los Húsares, Altos de Quilicura, Quilicura, Provincia de Santiago, Región Metropolitana de Santiago, 8710022, Chile",-33.359048,-70.7118607,True,3.0533128848045537
291,292,"Las Condes, Bulnes correa/carlos peña otaegui",Las Condes,"Las Condes, Provincia de Santiago, Región Metropolitana de Santiago, Chile",-33.4247879,-70.51749760753927,False,0.0
292,293,"Colina, José Rabat 8.600",Colina,"Colina, Região Imediata de Barretos, Região Geográfica Intermediária de Ribeirão Preto, São Paulo, Região Sudeste, 14770-000, Brasil",-20.711443,-48.53867,False,1816.8198646604321
293,294,"La Reina, Simón González , La Reina",La Reina,"La Reina, Provincia de Santiago, Región Metropolitana de Santiago, Chile",-33.4557204,-70.5353594,False,0.0
294,295,"Las Condes, Martín Alonso de Pinzon",Las Condes,"Las Condes, Provincia de Santiago, Región Metropolitana de Santiago, Chile",-33.4247879,-70.51749760753927,False,0.0
295,296,"Maipú, Las Brisas 3688",Maipú,"Las Brisas, Maipú, Provincia de Santiago, Región Metropolitana de Santiago, 9190847, Chile",-33.4791786,-70.7256225,True,2.635735323679502
296,297,"Peñaflor, Balmaceda/berlin",Peñaflor,"Peñaflor, Sevilla, Andalucía, España",37.7084447,-5.3457347,False,286.5343549052429
297,298,"Puente Alto, Av. San carlos (ag)/av. Concha y toro",Puente Alto,"Puente Alto, Provincia de Cordillera, Región Metropolitana de Santiago, Chile",-33.6095279,-70.5754736,False,0.0
298,299,"El Bosque, Pasaje Volcán Tronador",El Bosque,"El Bosque, Chiapas, México",17.0247264,-92.74723009318356,False,0.0
299,300,"Talagante, Parcela en Calera de Tango. Condominio",Talagante,"Talagante, Provincia de Talagante, Región Metropolitana de Santiago, 9670000, Chile",-33.6644399,-70.9302014,False,23.590477392002594
300,301,"Peñalolén, Peñalolén, Región Metropolitana",Peñalolén,"Peñalolén, Provincia de Santiago, Región Metropolitana de Santiago, 7940068, Chile",-33.4765918,-70.5418308,True,2.3917932880342057
301,302,"San Bernardo, San Bernardo, Región Metropolitana",San Bernardo,"San Bernardo, Santa Clara, Melipilla, Provincia de Melipilla, Región Metropolitana de Santiago, Chile",-33.5729125,-71.0848251,True,14.149232574178612
302,303,"La Florida, camino las Cumbres/.",La Florida,"Camino Las Cumbres, Alto Macul, La Florida, Provincia de Santiago, Región Metropolitana de Santiago, 7940697, Chile",-33.5181482,-70.5257249,True,2.2091446494836107
303,304,"Macul, Exequiel Fernández",Macul,"Exequiel Fernández, Macul, Provincia de Santiago, Región Metropolitana de Santiago, 7830198, Chile",-33.4991621,-70.6023945,True,4.975270131812997
304,305,"Estación Central, Estación Central",Estación Central,"Estación Central, Provincia de Santiago, Región Metropolitana de Santiago, 9160002, Chile",-33.4536375,-70.6898654,True,1.7386067043713147
305,306,"Colina, Reina Sur, Colina",Colina,"Colina, Região Imediata de Barretos, Região Geográfica Intermediária de Ribeirão Preto, São Paulo, Região Sudeste, 14770-000, Brasil",-20.711443,-48.53867,False,1816.8198646604321
306,307,"Lo Barnechea, Cerro La Paloma 11000",Lo Barnechea,"Cerro El Altar, Lomas de La Dehesa, Lo Barnechea, Provincia de Santiago, Región Metropolitana de Santiago, 7700651, Chile",-33.344506,-70.5287203,True,5.252092853469402
307,308,"Colina, Condominio Polo Mahuida Country Club",Colina,"Colina, Região Imediata de Barretos, Região Geográfica Intermediária de Ribeirão Preto, São Paulo, Região Sudeste, 14770-000, Brasil",-20.711443,-48.53867,False,1816.8198646604321
308,309,"Las Condes, evaristo lillo 390",Las Condes,"Evaristo Lillo, Las Condes, Provincia de Santiago, Región Metropolitana de Santiago, 7550000, Chile",-33.4149374,-70.5809632,True,4.102396345289407
309,310,"La Cisterna, La Cisterna, Región Metropolitana",La Cisterna,"La Cisterna, Autopista Vespucio Sur, La Cisterna, Provincia de Santiago, Región Metropolitana de Santiago, 7970671, Chile",-33.5372928,-70.6642731,True,0.8638676562035461
310,311,"Pirque, La Escuela, Pirque",Pirque,"Ramón Subercaseaux, Condominio La Mackennita, Pirque, Provincia de Cordillera, Región Metropolitana de Santiago, Chile",-33.6119059,-70.5026103,True,6.767153102508058
311,312,"Puente Alto, Estación Curacautín",Puente Alto,"Pasaje Estación Curacautín, Villa Estaciones Ferroviarias, Puente Alto, Provincia de Cordillera, Región Metropolitana de Santiago, 8153644, Chile",-33.6209629,-70.6154897,True,3.924084364897359
312,313,"Santiago, Pasaje Sagitario",Santiago,"Pasaje Sagitario, Villa San Guillermo 1, Puente Alto, Provincia de Cordillera, Región Metropolitana de Santiago, 8153644, Chile",-33.6236858,-70.6061686,True,3.2526105504854987
313,314,"Quilicura, Las torres",Quilicura,"Las Torres, El Alba de Campino, Quilicura, Provincia de Santiago, Región Metropolitana de Santiago, 8700000, Chile",-33.377895,-70.7262533,True,2.876074141493943
314,315,"Puente Alto, Salitrera Bellavista",Puente Alto,"Pasaje Salitrera Bellavista, Villa España 1, Puente Alto, Provincia de Cordillera, Región Metropolitana de Santiago, 8151746, Chile",-33.5901793,-70.5662962,True,2.308921916620124
315,316,"Maipú, maipu",Maipú,"Maipú, Provincia de Santiago, Región Metropolitana de Santiago, 9251542, Chile",-33.5094409,-70.756182,True,0.0
316,317,"Puente Alto, Condominio Jardines de Las Vizcachas",Puente Alto,"Puente Negro, Jardines de Vizcachas, Puente Alto, Provincia de Cordillera, Región Metropolitana de Santiago, Chile",-33.6061191,-70.515085,True,5.617234076137665
317,318,"Buin, Buin, Región Metropolitana",Buin,"Buin, Pasaje El Guardavías, Bajos de Matte, Buin, Provincia de Maipo, Región Metropolitana de Santiago, Chile",-33.7323676,-70.7284134,True,18.888429331202836
318,319,"Quilicura, Valle Lo Campino",Quilicura,"Valle Lo Campino, El Alba de Campino, Quilicura, Provincia de Santiago, Región Metropolitana de Santiago, Chile",-33.38252895,-70.71861325915403,True,2.595737743392314
319,320,"Santiago, La reina",Santiago,"La Reina, Provincia de Santiago, Región Metropolitana de Santiago, Chile",-33.4557204,-70.5353594,True,0.0
320,321,"Puente Alto, 2522 Miguel Covarrubias Puente Alto, Región Metropolitana",Puente Alto,"Puente Alto, Provincia de Cordillera, Región Metropolitana de Santiago, Chile",-33.6095279,-70.5754736,False,0.0
321,322,"Lampa, Los Tulipanes 6000",Lampa,"Camino Los Tulipanes, Villa Luis Durand, Sol de Septiembre, Lampa, Provincia de Chacabuco, Región Metropolitana de Santiago, Chile",-33.2963799,-70.8684052,True,13.268945403044846
322,323,"Maipú, pajaritos 10 maipu",Maipú,"Parada 10 / Plaza Maipú, Avenida Los Pajaritos, Maipú, Provincia de Santiago, Región Metropolitana de Santiago, 9251542, Chile",-33.5101575,-70.7574055,True,0.13870776796412912
323,324,"Santiago, Soria, Las Condes",Santiago,"Soria, Las Condes, Provincia de Santiago, Región Metropolitana de Santiago, 7550000, Chile",-33.4201126,-70.5803949,True,4.234049777726243
324,325,"Ñuñoa, Marchant pereira",Ñuñoa,"Marchant Pereira, Ñuñoa, Provincia de Santiago, Región Metropolitana de Santiago, 7750000, Chile",-33.4520786,-70.6071614,True,0.6607264072479859
325,326,"Las Condes, Las Condes, Región Metropolitana",Las Condes,"Las Condes, Provincia de Santiago, Región Metropolitana de Santiago, 7550000, Chile",-33.4084548,-70.5671489,True,3.1356123407670626
326,327,"Puente Alto, Maullín",Puente Alto,"Maullín, Población Manuel Rodríguez, Curicó, Provincia de Curicó, Región del Maule, 3340000, Chile",-34.9725121,-71.227405,True,162.66987413476238
327,328,"La Reina, Av. Ossa 981",La Reina,"Avenida Ossa, La Reina, Provincia de Santiago, Región Metropolitana de Santiago, 7870154, Chile",-33.4536092,-70.5706975,True,2.7795622406093403
328,329,"Lo Barnechea, Colegio Newland / Santa Blanca",Lo Barnechea,"Lo Barnechea, Provincia de Santiago, Región Metropolitana de Santiago, Chile",-33.2935888,-70.39035501440654,False,0.0
329,330,"La Reina, Av jose arrieta con Fidias",La Reina,"La Reina, Provincia de Santiago, Región Metropolitana de Santiago, Chile",-33.4557204,-70.5353594,False,0.0
330,331,"Puente Alto, Tocornal Grez",Puente Alto,"Tocornal Grez, Población Maipo, Puente Alto, Provincia de Cordillera, Región Metropolitana de Santiago, 8150000, Chile",-33.6121036,-70.5786802,True,0.4125199681310028
331,332,"Ñuñoa, Casa 3 Pisos cercana a Est. Metro S. Bolívar",Ñuñoa,"Ñuñoa, Provincia de Santiago, Región Metropolitana de Santiago, Chile",-33.4543304,-70.60058198319726,False,0.0
332,333,"Lampa, Lampa, Región Metropolitana",Lampa,"Villa Alto de Lampa, Lampa, Provincia de Chacabuco, Región Metropolitana de Santiago, Chile",-33.2895953,-70.8705255,True,13.82283696341084
333,334,"Peñalolén, Avenida Los Presidentes",Peñalolén,"Avenida Los Presidentes, Peñalolén, Provincia de Santiago, Región Metropolitana de Santiago, 7810677, Chile",-33.4801767,-70.5779584,True,3.5553663255705485
334,335,"Ñuñoa, Los Aliaga / Metro Los Orientales",Ñuñoa,"Ñuñoa, Provincia de Santiago, Región Metropolitana de Santiago, Chile",-33.4543304,-70.60058198319726,False,0.0
335,336,"Maipú, Michimalongo 1691",Maipú,"Michimalongo, Condominio Patagonia II, Maipú, Provincia de Santiago, Región Metropolitana de Santiago, 9252307, Chile",-33.558571,-70.7716543,True,5.635547013293663
336,337,"Ñuñoa, Pucará / Rosita Renard",Ñuñoa,"Ñuñoa, Provincia de Santiago, Región Metropolitana de Santiago, Chile",-33.4543304,-70.60058198319726,False,0.0
337,338,"Independencia, Pedro Banner con Venecia",Independencia,"Independencia, República Dominicana",18.3839463,-71.6385932,False,0.0
338,339,"La Florida, La Florida, Región Metropolitana",La Florida,"La Florida, Provincia de Santiago, Región Metropolitana de Santiago, 8240000, Chile",-33.5204181,-70.6006178,True,5.377640970424753
339,340,"Ñuñoa, Granada 20000",Ñuñoa,"Granada, Ñuñoa, Provincia de Santiago, Región Metropolitana de Santiago, 7750000, Chile",-33.447751,-70.6090513,True,1.0735773199966667
340,341,"Cerrillos, Cerrillos, Región Metropolitana",Cerrillos,"Cerrillos, Corredor Transantiago Pedro Aguirre Cerda, Cerrillos, Provincia de Santiago, Región Metropolitana de Santiago, 9210007, Chile",-33.4834216,-70.6955488,True,2.056393603590415
341,342,"La Reina, Casa recien remodelada simon gonzalez / vicente perez rosales",La Reina,"La Reina, Provincia de Santiago, Región Metropolitana de Santiago, Chile",-33.4557204,-70.5353594,False,0.0
342,343,"Renca, (YC 56776) Los Alacalufes/(YC 56776) Los Yaganes",Renca,"Renca, Provincia de Santiago, Región Metropolitana de Santiago, Chile",-33.4035274,-70.73093305460753,False,0.0
343,344,"Puente Alto, Las Mercedes",Puente Alto,"Las Mercedes, Corredor Transporte Público Concha y Toro, Condominio Los Otoñales 1, Puente Alto, Provincia de Cordillera, Región Metropolitana de Santiago, 8150000, Chile",-33.6013816,-70.5774622,True,0.9222060331345432
344,345,"Maipú, Camino a Melipilla",Maipú,"Camino a Melipilla, Maipú, Provincia de Santiago, Región Metropolitana de Santiago, 9252307, Chile",-33.5277584,-70.757216,True,2.0339318152170813
345,346,"Santiago, av. matta parque ohiggins",Santiago,"Santiago, Provincia de Santiago, Región Metropolitana de Santiago, 8320000, Chile",-33.4377756,-70.6504502,False,0.0
346,347,"Puente Alto, Avda. Gabriela Poniente, con Creta Norte Puente Alto, Chile",Puente Alto,"Puente Alto, Provincia de Cordillera, Región Metropolitana de Santiago, Chile",-33.6095279,-70.5754736,False,0.0
347,348,"La Reina, Cerca del metro-- country club - av tobalaba/av ossa - av bilbao- local comercial",La Reina,"La Reina, Provincia de Santiago, Región Metropolitana de Santiago, Chile",-33.4557204,-70.5353594,False,0.0
348,349,"La Cisterna, Paradero 27 gran avenida/ Carlos Condell",La Cisterna,"La Cisterna, Provincia de Santiago, Región Metropolitana de Santiago, Chile",-33.529504200000005,-70.66424867440273,False,0.0
349,350,"La Florida, Casa de un piso a pasos de Estación metro Trinidad. La Florida",La Florida,"La Florida, Provincia de Santiago, Región Metropolitana de Santiago, Chile",-33.530816599999994,-70.54407548567474,False,0.0
350,351,"Ñuñoa, Emilia Tellez con Rosita Renard",Ñuñoa,"Ñuñoa, Provincia de Santiago, Región Metropolitana de Santiago, Chile",-33.4543304,-70.60058198319726,False,0.0
351,352,"La Reina, Cordillera",La Reina,"Cordillera, Barrio Industrial, La Reina, Provincia de Santiago, Región Metropolitana de Santiago, 7860379, Chile",-33.4557659,-70.5352608,True,0.010464130583462091
352,353,"Puente Alto, Hacienda 02444",Puente Alto,"Puente Amazonico, Carretera Panamericana Sur, Hacienda Zarzal, El Alto, Majes, Caylloma, Arequipa, Perú",-16.3906491,-72.1836212,True,1881.0849398899559
353,354,"Las Condes, San Ramón// San Carlos de Apoquindo",Las Condes,"Las Condes, Provincia de Santiago, Región Metropolitana de Santiago, Chile",-33.4247879,-70.51749760753927,False,0.0
354,355,"La Florida, Tte de Marina Rolando Froden",La Florida,"La Florida, Provincia de Santiago, Región Metropolitana de Santiago, Chile",-33.530816599999994,-70.54407548567474,False,0.0
355,356,"Ñuñoa, Casa 3 Pisos en excelente ubicación",Ñuñoa,"Ñuñoa, Provincia de Santiago, Región Metropolitana de Santiago, Chile",-33.4543304,-70.60058198319726,False,0.0
356,357,"Maipú, Carlos Becerra",Maipú,"René Olivares Becerra, Villa Carlos V, Maipú, Provincia de Santiago, Región Metropolitana de Santiago, 9252307, Chile",-33.5326005,-70.7739193,True,3.05181056722753
357,358,"Maipú, Rene Olivares Becerra/Cuatro  Poniente",Maipú,"Maipú, Provincia de Santiago, Región Metropolitana de Santiago, 9251542, Chile",-33.5094409,-70.756182,False,0.0
358,359,"El Bosque, Continental con Pasaje once",El Bosque,"El Bosque, Chiapas, México",17.0247264,-92.74723009318356,False,0.0
359,360,"La Granja, Metro la granja",La Granja,"La Granja, Trasierra-Tierras de Granadilla, Cáceres, Extremadura, 10748, España",40.2393229,-5.9946107,False,0.0
360,361,"Providencia, Pocuro/amapolas",Providencia,"Providencia, Los Abades, Nariño, Colombia",1.2420408,-77.6009953089243,False,0.0
361,362,"Vitacura, Samoa",Vitacura,"Samoa, Vitacura, Provincia de Santiago, Región Metropolitana de Santiago, 7560995, Chile",-33.3945697,-70.5807541,True,2.1154004139447866
362,363,"Pudahuel, Condominio Lomas de Manutara, Pudahuel",Pudahuel,"Pudahuel, Provincia de Santiago, Región Metropolitana de Santiago, Chile",-33.4193729,-70.86335607718577,False,0.0
363,364,"Pudahuel, Pto Antofagasta/Av. Laguna Sur",Pudahuel,"Pudahuel, Provincia de Santiago, Región Metropolitana de Santiago, Chile",-33.4193729,-70.86335607718577,False,0.0
364,365,"Maipú, Maipú, Región Metropolitana",Maipú,"Maipú, Provincia de Santiago, Región Metropolitana de Santiago, 9251542, Chile",-33.5094409,-70.756182,True,0.0
365,366,"Vitacura, Colegio Aleman-Geronimo de Alderete",Vitacura,"Vitacura, Provincia de Santiago, Región Metropolitana de Santiago, Chile",-33.3802063,-70.56579553780725,False,0.0
366,367,"Melipilla, Melipilla, Región Metropolitana",Melipilla,"Melipilla, Provincia de Melipilla, Región Metropolitana de Santiago, Chile",-33.6855134,-71.2145796,True,30.916444718547478
367,368,"Vitacura, joaquin cerda",Vitacura,"Joaquín Cerda, Vitacura, Provincia de Santiago, Región Metropolitana de Santiago, 7640639, Chile",-33.3851876,-70.5737183,True,0.9212452068171485
368,369,"Las Condes, IV Centenario con Monroe",Las Condes,"Las Condes, Provincia de Santiago, Región Metropolitana de Santiago, Chile",-33.4247879,-70.51749760753927,False,0.0
369,370,"Paine, Carretera Acceso Sur/El Romeral",Paine,"Paine, Provincia de Maipo, Región Metropolitana de Santiago, Chile",-33.8101102,-70.7390236,False,26.922500173258
370,371,"La Florida, Villa los Peumos",La Florida,"Los Peumos, La Florida, Talca, Provincia de Talca, Región del Maule, 3460000, Chile",-35.4341694,-71.6802463,True,226.4005233895553
371,372,"El Bosque, La cantera/la pampas",El Bosque,"El Bosque, Chiapas, México",17.0247264,-92.74723009318356,False,0.0
372,373,"La Florida, Las Araucarias",La Florida,"Las Araucarias, La Florida, Talca, Provincia de Talca, Región del Maule, 3460000, Chile",-35.433289,-71.6842669,True,226.47910635859998
373,374,"Peñalolén, Avenida Quilín",Peñalolén,"Avenida Quilín, Parque Cousiño Macul, Peñalolén, Provincia de Santiago, Región Metropolitana de Santiago, 7940697, Chile",-33.4989506,-70.5602101,True,3.839120003872196
374,375,"La Florida, Jardin  Alto/Rojas Magallanes",La Florida,"Jardin Alto / Rojas Magallanes, Rojas Magallanes, La Florida, Provincia de Santiago, Región Metropolitana de Santiago, 8290879, Chile",-33.5359646,-70.5568419,True,1.3161389441965707
375,376,"San Bernardo, Las pircas",San Bernardo,"Las Pircas, Población Arturo Prat, Rastrojos, San Vicente de Tagua Tagua, Provincia de Cachapoal, Región del Libertador General Bernardo O'Higgins, 2970000, Chile",-34.4570459,-71.0336185,True,103.09081445374483
376,377,"Pudahuel, Mira",Pudahuel,"Mira, Pudahuel Sur, Pudahuel, Provincia de Santiago, Región Metropolitana de Santiago, 9020078, Chile",-33.4617533,-70.757143,True,3.518661543920582
377,378,"Ñuñoa, Cercano a príncipe de gales",Ñuñoa,"Ñuñoa, Provincia de Santiago, Región Metropolitana de Santiago, Chile",-33.4543304,-70.60058198319726,False,0.0
378,379,"Maipú, Andrés Amenábar Vergara",Maipú,"Andrés Amenabar Vergara, Maipú, Provincia de Santiago, Región Metropolitana de Santiago, 9252307, Chile",-33.528966,-70.7684272,True,2.4462160981167704
379,380,"Pudahuel, valle apacible 1",Pudahuel,"Pudahuel, Provincia de Santiago, Región Metropolitana de Santiago, Chile",-33.4193729,-70.86335607718577,False,0.0
380,381,"Isla de Maipo, Carampangue,Isla de Maipo",Isla de Maipo,"Isla de Maipo, Provincia de Talagante, Región Metropolitana de Santiago, 9790152, Chile",-33.7537387,-70.9039325,False,30.366796716806242
381,382,"Independencia, Picarte/Lastra",Independencia,"Independencia, República Dominicana",18.3839463,-71.6385932,False,0.0
382,383,"Quilicura, Av. Lo marcoleta (ag)/africa",Quilicura,"Quilicura, Provincia de Santiago, Región Metropolitana de Santiago, Chile",-33.3552701,-70.7443552450391,False,0.0
383,384,"Paine, San Vicente 168",Paine,"168, San Vicente, Villa Las Américas, Paine, Provincia de Maipo, Región Metropolitana de Santiago, Chile",-33.8183222,-70.7414678,True,27.804305147478516
384,385,"Maipú, Pasaje Relmu norte",Maipú,"Maipú, Provincia de Santiago, Región Metropolitana de Santiago, 9251542, Chile",-33.5094409,-70.756182,False,0.0
385,386,"Recoleta, Av recoleta/av. Einstein",Recoleta,"Einstein, Avenida Recoleta, Recoleta, Provincia de Santiago, Región Metropolitana de Santiago, 7690000, Chile",-33.4059425,-70.6431507,True,3.595350956742208
386,387,"El Bosque, Juan Solar Parra 1169",El Bosque,"Juan Solar Parra, El Bosque, Provincia de Santiago, Región Metropolitana de Santiago, 8010000, Chile",-33.5494234,-70.6662534,True,2.2171525411386797
387,388,"Pedro Aguirre Cerda, Salesianos & Autopista Central",Pedro Aguirre Cerda,"Pedro Aguirre Cerda, Provincia de Santiago, Región Metropolitana de Santiago, Chile",-33.49340995,-70.67690706456402,False,0.0
388,389,"Lo Barnechea, El Arrayán, Lo Barnechea",Lo Barnechea,"Lo Barnechea, Provincia de Santiago, Región Metropolitana de Santiago, Chile",-33.2935888,-70.39035501440654,False,0.0
389,390,"Las Condes, Las Condes, Región Metropolitana",Las Condes,"Las Condes, Provincia de Santiago, Región Metropolitana de Santiago, 7550000, Chile",-33.4084548,-70.5671489,True,3.1356123407670626
390,391,"Las Condes, nevera",Las Condes,"Las Condes, Provincia de Santiago, Región Metropolitana de Santiago, Chile",-33.4247879,-70.51749760753927,False,0.0
391,392,"Ñuñoa, Rosita Renard & Pucará",Ñuñoa,"Ñuñoa, Provincia de Santiago, Región Metropolitana de Santiago, Chile",-33.4543304,-70.60058198319726,False,0.0
392,393,"Estación Central, Avenida Las Rejas Sur",Estación Central,"Avenida Las Rejas Sur, Estación Central, Provincia de Santiago, Región Metropolitana de Santiago, 9190847, Chile",-33.462865,-70.7052806,True,0.03575842879194943
393,394,"Las Condes, Torres del Paine 7200",Las Condes,"7200, Torres del Paine, Las Condes, Provincia de Santiago, Región Metropolitana de Santiago, 7570685, Chile",-33.4275857,-70.5569942,True,3.686319632686579
394,395,"Lampa, Lampa, Región Metropolitana",Lampa,"Villa Alto de Lampa, Lampa, Provincia de Chacabuco, Región Metropolitana de Santiago, Chile",-33.2895953,-70.8705255,True,13.82283696341084
395,396,"Buin, Valle Araucarias",Buin,"Valle Araucarias, Linderos, Buin, Provincia de Maipo, Región Metropolitana de Santiago, Chile",-33.7544597,-70.7440996,True,21.73642033313306
396,397,"Las Condes, Las Condes, Región Metropolitana",Las Condes,"Las Condes, Provincia de Santiago, Región Metropolitana de Santiago, 7550000, Chile",-33.4084548,-70.5671489,True,3.1356123407670626
397,398,"Colina, ¡oportunidad!/colegio pucalán",Colina,"Colina, Região Imediata de Barretos, Região Geográfica Intermediária de Ribeirão Preto, São Paulo, Região Sudeste, 14770-000, Brasil",-20.711443,-48.53867,False,1816.8198646604321
398,399,"Puente Alto, Carlos Aguirre Luco",Puente Alto,"Carlos Aguirre Luco, Villa Montegrande, Puente Alto, Provincia de Cordillera, Región Metropolitana de Santiago, 8151746, Chile",-33.5847619,-70.5772511,True,2.7518743159744696
399,400,"Huechuraba, Linda casa inmejorable ubicación",Huechuraba,"Huechuraba, Provincia de Santiago, Región Metropolitana de Santiago, Chile",-33.365721449999995,-70.6429271186091,False,0.0
400,401,"San Bernardo, Avenida América/Costanera Manuel Magalanes Moure",San Bernardo,"San Bernardo, Rio Mayo, Nariño, Colombia",1.533534,-77.01845480416105,False,0.0
401,402,"Conchalí, Av. Independencia 5639",Conchalí,"5639, Avenida Independencia, Conchalí, Provincia de Santiago, Región Metropolitana de Santiago, 8710022, Chile",-33.37647553904126,-70.6843788642699,True,1.2502139298101096
402,403,"Renca, Educadora aurora valdes (am) renca/jose manuel balmaceda (am)",Renca,"Renca, Provincia de Santiago, Región Metropolitana de Santiago, Chile",-33.4035274,-70.73093305460753,False,0.0
403,404,"Puente Alto, San martin",Puente Alto,"San Martín, Barrio Terrandina, Puente Alto, Provincia de Cordillera, Región Metropolitana de Santiago, 8220093, Chile",-33.5919704,-70.5443516,True,3.4837107412629646
404,405,"Vitacura, Alianza francesa-jardin del este",Vitacura,"Vitacura, Provincia de Santiago, Región Metropolitana de Santiago, Chile",-33.3802063,-70.56579553780725,False,0.0
405,406,"Las Condes, Las Condes, Región Metropolitana",Las Condes,"Las Condes, Provincia de Santiago, Región Metropolitana de Santiago, 7550000, Chile",-33.4084548,-70.5671489,True,3.1356123407670626
406,407,"El Bosque, Casa el bosque 4d+2b+2e",El Bosque,"El Bosque, Chiapas, México",17.0247264,-92.74723009318356,False,0.0
407,408,"Maipú, Manuel Rodríguez",Maipú,"Manuel Rodríguez, La Sinfonía, Maipú, Provincia de Santiago, Región Metropolitana de Santiago, 9250678, Chile",-33.4981576,-70.7602617,True,1.3076230144333614
408,409,"Quilicura, Ramón rosales",Quilicura,"Ramón Rosales, Villa Esmeralda, Quilicura, Provincia de Santiago, Región Metropolitana de Santiago, 8700000, Chile",-33.3698427,-70.7224483,True,2.601778081869269
409,410,"Puente Alto, Avenida las nieves con avenida mexico",Puente Alto,"Puente Alto, Provincia de Cordillera, Región Metropolitana de Santiago, Chile",-33.6095279,-70.5754736,False,0.0
410,411,"Puente Alto, Independencia",Puente Alto,"Independencia, Doña Javiera, Puente Alto, Provincia de Cordillera, Región Metropolitana de Santiago, 8150000, Chile",-33.6008736,-70.5808752,True,1.0829223382303423
411,412,"Maipú, Santa Belinda, Maipú",Maipú,"Maipú, Provincia de Santiago, Región Metropolitana de Santiago, 9251542, Chile",-33.5094409,-70.756182,False,0.0
412,413,"Puente Alto, Puente Alto, Región Metropolitana",Puente Alto,"Puente Alto, Avenida Ejército Libertador, Barrio Suiza, Puente Alto, Provincia de Cordillera, Región Metropolitana de Santiago, 8153644, Chile",-33.5913562,-70.5944307,True,2.675475326195389
413,414,"Las Condes, Las Condes, Región Metropolitana",Las Condes,"Las Condes, Provincia de Santiago, Región Metropolitana de Santiago, 7550000, Chile",-33.4084548,-70.5671489,True,3.1356123407670626
414,415,"La Reina, Dragones de la Reina/Francisco de Villagra",La Reina,"La Reina, Provincia de Santiago, Región Metropolitana de Santiago, Chile",-33.4557204,-70.5353594,False,0.0
415,416,"Maipú, Las Norias 2646",Maipú,"Las Norias, PORTAL DEL SOL, Maipú, Provincia de Santiago, Región Metropolitana de Santiago, 9250678, Chile",-33.5061563,-70.7946378,True,3.5916143154025715
416,417,"Ñuñoa, Coventry/Irarrazaval",Ñuñoa,"Ñuñoa, Provincia de Santiago, Región Metropolitana de Santiago, Chile",-33.4543304,-70.60058198319726,False,0.0
417,418,"Colina, Av el valle",Colina,"Funeraria Valle Dorado, Avenida 39A, Paja de Agua, Quesada, Cantón San Carlos, Provincia Alajuela, 21001, Costa Rica",10.3405836,-84.43210225756064,True,1163.9987681631594
418,419,"Puente Alto, Agua viva norte",Puente Alto,"Puente Alto, Provincia de Cordillera, Región Metropolitana de Santiago, Chile",-33.6095279,-70.5754736,False,0.0
419,420,"Pudahuel, Llanquihue, Pudahuel",Pudahuel,"Pudahuel, Provincia de Santiago, Región Metropolitana de Santiago, Chile",-33.4193729,-70.86335607718577,False,0.0
420,421,"Peñalolén, Peñalolén, Región Metropolitana",Peñalolén,"Peñalolén, Provincia de Santiago, Región Metropolitana de Santiago, 7940068, Chile",-33.4765918,-70.5418308,True,2.3917932880342057
421,422,"Las Condes, Las Condes, Región Metropolitana",Las Condes,"Las Condes, Provincia de Santiago, Región Metropolitana de Santiago, 7550000, Chile",-33.4084548,-70.5671489,True,3.1356123407670626
422,423,"Ñuñoa, El Bosque / Diego de Almagro",Ñuñoa,"Ñuñoa, Provincia de Santiago, Región Metropolitana de Santiago, Chile",-33.4543304,-70.60058198319726,False,0.0
423,424,"La Pintana, san Martin 2284",La Pintana,"La Pintana, Provincia de Santiago, Región Metropolitana de Santiago, 8150513, Chile",-33.5833594,-70.629827,False,0.0
424,425,"Las Condes, Constancio Vigil con Esteban DellOrto",Las Condes,"Las Condes, Provincia de Santiago, Región Metropolitana de Santiago, Chile",-33.4247879,-70.51749760753927,False,0.0
425,426,"Pedro Aguirre Cerda, Av julieta-av departamental (am-57112)/av lazo (am)",Pedro Aguirre Cerda,"Pedro Aguirre Cerda, Provincia de Santiago, Región Metropolitana de Santiago, Chile",-33.49340995,-70.67690706456402,False,0.0
426,427,"La Florida, La Florida, Región Metropolitana",La Florida,"La Florida, Provincia de Santiago, Región Metropolitana de Santiago, 8240000, Chile",-33.5204181,-70.6006178,True,5.377640970424753
427,428,"Cerro Navia, Mar de Chile/Avenida Serrano",Cerro Navia,"Cerro Navia, Provincia de Santiago, Región Metropolitana de Santiago, Chile",-33.4253465,-70.74605615789243,False,0.0
428,429,"Maipú, Costanera Sur Z. Aguada",Maipú,"Maipú, Provincia de Santiago, Región Metropolitana de Santiago, 9251542, Chile",-33.5094409,-70.756182,False,0.0
429,430,"Santiago, Santiago, Región Metropolitana",Santiago,"San Pablo 2966 5to Piso, Santiago, Región Metropolitana, Chile, 2966, Avenida San Pablo, Santiago, Provincia de Santiago, Región Metropolitana de Santiago, 8350485, Chile",-33.4354421,-70.6766162,True,2.4469080872498097
430,431,"Lo Barnechea, Paseo de Alcala 10538",Lo Barnechea,"Paseo de Alcalá, Los Nogales, Lo Barnechea, Provincia de Santiago, Región Metropolitana de Santiago, 7700651, Chile",-33.3311333,-70.5324881,True,6.263714585028333
431,432,"Maipú, Parque Central Ote. 1742",Maipú,"Maipú, Provincia de Santiago, Región Metropolitana de Santiago, 9251542, Chile",-33.5094409,-70.756182,False,0.0
432,433,"La Pintana, Pasaje Ignacio Carrera Pinto esquina Pasaje Luis Cruz Martínez",La Pintana,"La Pintana, Provincia de Santiago, Región Metropolitana de Santiago, 8150513, Chile",-33.5833594,-70.629827,False,0.0
433,435,"Las Condes, Las Condes, Región Metropolitana",Las Condes,"Las Condes, Provincia de Santiago, Región Metropolitana de Santiago, 7550000, Chile",-33.4084548,-70.5671489,True,3.1356123407670626
434,436,"Estación Central, General amengual (am-51841)/metro ecuador (am)",Estación Central,"Estación Central, Provincia de Santiago, Región Metropolitana de Santiago, Chile",-33.4629494,-70.70490935867974,False,0.0
435,437,"La Florida, Santa Raquel",La Florida,"Santa Raquel, Bellavista de La Florida, La Florida, Provincia de Santiago, Región Metropolitana de Santiago, 8240000, Chile",-33.5250229,-70.6030672,True,5.517448448336093
436,438,"Peñalolén, Pasaje los contratistas",Peñalolén,"Peñalolén, Provincia de Santiago, Región Metropolitana de Santiago, Chile",-33.48622465,-70.50929029561439,False,0.0
437,439,"Puente Alto, Puente Alto, Región Metropolitana",Puente Alto,"Puente Alto, Avenida Ejército Libertador, Barrio Suiza, Puente Alto, Provincia de Cordillera, Región Metropolitana de Santiago, 8153644, Chile",-33.5913562,-70.5944307,True,2.675475326195389
438,440,"Maipú, Las Águilas 571",Maipú,"Las Águilas, Las Palmas de Maipú, Maipú, Provincia de Santiago, Región Metropolitana de Santiago, 9190847, Chile",-33.4742159,-70.7504747,True,3.896434056170113
439,441,"Ñuñoa, Metro Villa Frei // Lo Plaza",Ñuñoa,"Ñuñoa, Provincia de Santiago, Región Metropolitana de Santiago, Chile",-33.4543304,-70.60058198319726,False,0.0
440,442,"Recoleta, av mexico 323 recoleta",Recoleta,"Recoleta, Provincia de Santiago, Región Metropolitana de Santiago, Chile",-33.405882899999995,-70.63270330089452,False,3.903427042847559
441,443,"La Cisterna, La Cisterna, Región Metropolitana",La Cisterna,"La Cisterna, Autopista Vespucio Sur, La Cisterna, Provincia de Santiago, Región Metropolitana de Santiago, 7970671, Chile",-33.5372928,-70.6642731,True,0.8638676562035461
442,444,"Curacaví, Las Rosas, Curacaví",Curacaví,"Puente Curacaví, Ruta 68, El Estero, Curacaví, Provincia de Melipilla, Región Metropolitana de Santiago, Chile",-33.4130668,-71.153639,True,12.519965210776437
443,445,"Lampa, Lampa, Región Metropolitana",Lampa,"Villa Alto de Lampa, Lampa, Provincia de Chacabuco, Región Metropolitana de Santiago, Chile",-33.2895953,-70.8705255,True,13.82283696341084
444,446,"Puente Alto, Pasaje Giordano bruno 1442",Puente Alto,"Puente Alto, Provincia de Cordillera, Región Metropolitana de Santiago, Chile",-33.6095279,-70.5754736,False,0.0
445,447,"Puente Alto, Barrio Holanda",Puente Alto,"Barrio Holanda, Puente Alto, Provincia de Cordillera, Región Metropolitana de Santiago, 8153644, Chile",-33.5964525,-70.5974905,True,2.5057744289861357
446,448,"Lo Prado, Casa 3 Dor. 2 baños, Dor. servicio, Villa California, Chile",Lo Prado,"Lo Prado, Provincia de Santiago, Región Metropolitana de Santiago, 8980000, Chile",-33.44740825,-70.7233862593184,False,0.0
447,449,"Ñuñoa, Barrio Italia / Emilio Vaisse",Ñuñoa,"Emilio Vaisse, Barrio Italia, Ñuñoa, Provincia de Santiago, Región Metropolitana de Santiago, 7770613, Chile",-33.4523243,-70.6257017,True,2.3460149760496587
448,450,"La Florida, Olga Salas / Alto Macul",La Florida,"La Florida, Provincia de Santiago, Región Metropolitana de Santiago, Chile",-33.530816599999994,-70.54407548567474,False,0.0
449,451,"La Pintana, La Pintana, Región Metropolitana",La Pintana,"La Pintana, Provincia de Santiago, Región Metropolitana de Santiago, 8150513, Chile",-33.5833594,-70.629827,True,0.0
450,452,"Providencia, Lo Contador / Pedro de Valdivia Norte/Los Conquistadores / Av Santa Maria",Providencia,"Providencia, Los Abades, Nariño, Colombia",1.2420408,-77.6009953089243,False,0.0
451,453,"Puente Alto, Finlandia con costanera ignacio carrera pinto",Puente Alto,"Puente Alto, Provincia de Cordillera, Región Metropolitana de Santiago, Chile",-33.6095279,-70.5754736,False,0.0
452,454,"Providencia, Pedro de Valdivia Norte/Los Misioneros",Providencia,"Los Misioneros, Pedro de Valdivia Norte, Providencia, Provincia de Santiago, Región Metropolitana de Santiago, 7530116, Chile",-33.4178542,-70.6182997,True,3.7177947986129185
453,455,"Colina, Santa Ester, Colina",Colina,"Fundo San Miguel de Colina, San Miguel - Liray, Alimex, Las Cañas, San Miguel, Colina, Provincia de Chacabuco, Región Metropolitana de Santiago, Chile",-33.2102926,-70.6975118,True,16.660971277086347
454,456,"La Florida, El mármol",La Florida,"El Mármol, La Florida, Provincia de Santiago, Región Metropolitana de Santiago, 8240000, Chile",-33.5504672,-70.5751899,True,3.619633276039008
455,457,"Huechuraba, Santa Marta de Huechuraba",Huechuraba,"Santa Marta de Huechuraba, Condominio Terranova, Huechuraba, Provincia de Santiago, Región Metropolitana de Santiago, 8600651, Chile",-33.3597964,-70.6758913,True,2.722489751395946
456,458,"Puente Alto, Pasaje Padre Alberto Hurtado",Puente Alto,"Puente Alto, Provincia de Cordillera, Región Metropolitana de Santiago, Chile",-33.6095279,-70.5754736,False,0.0
457,459,"La Cisterna, Calle uno",La Cisterna,"Calle Uno, La Cisterna, Provincia de Santiago, Región Metropolitana de Santiago, 7970000, Chile",-33.5356144,-70.6816245,True,1.750510208021774
458,460,"Maipú, Aves del Paraíso/Av El descanso /Chugungo",Maipú,"Maipú, Provincia de Santiago, Región Metropolitana de Santiago, 9251542, Chile",-33.5094409,-70.756182,False,0.0
459,461,"Macul, Avda.El Libano/Miguel de Cervantes",Macul,"Macul, Provincia de Santiago, Región Metropolitana de Santiago, Chile",-33.49194265,-70.59973215756841,False,4.172431762693029
460,462,"Colina, los damascos",Colina,"los damascos, Los Diecisiete, Santa Inés de Miraflores, Colina, Provincia de Chacabuco, Región Metropolitana de Santiago, Chile",-33.2710176,-70.7145236,True,9.748633089729887
461,463,"Lo Espejo, Lo espejo",Lo Espejo,"Lo Espejo, Provincia de Santiago, Región Metropolitana de Santiago, 9140110, Chile",-33.5250782,-70.694539,True,0.7039574272204572
462,464,"La Reina, José Zapiola 8774",La Reina,"José Zapiola, La Reina, Provincia de Santiago, Región Metropolitana de Santiago, 7850633, Chile",-33.4494876,-70.5539605,True,1.8624510870523399
463,465,"El Bosque, Gabriela mistral n° 9718, población santa cristina",El Bosque,"El Bosque, Chiapas, México",17.0247264,-92.74723009318356,False,0.0
464,466,"Maipú, Casa de 1 Piso en sector residencial",Maipú,"Maipú, Provincia de Santiago, Región Metropolitana de Santiago, 9251542, Chile",-33.5094409,-70.756182,False,0.0
465,467,"Cerro Navia, Caupolicán",Cerro Navia,"Caupolicán, Cerro Navia, Provincia de Santiago, Región Metropolitana de Santiago, 9010290, Chile",-33.4304431,-70.7298505,True,1.6096399471318918
466,468,"Maipú, Mujeres Chilenas, Maipú",Maipú,"Maipú, Provincia de Santiago, Región Metropolitana de Santiago, 9251542, Chile",-33.5094409,-70.756182,False,0.0
467,469,"Paine, Paine, Región Metropolitana",Paine,"Paine, Avenida General Baquedano, Villa Las Américas, Rincón de Paine, Paine, Provincia de Maipo, Región Metropolitana de Santiago, Chile",-33.8160671,-70.7436049,True,27.707361862766614
468,470,"Lo Barnechea, Colegio Mayflower",Lo Barnechea,"Colegio The Mayflower School, 13675, Camino De La Laguna, El Huinganal, Lo Barnechea, Provincia de Santiago, Región Metropolitana de Santiago, 7690286, Chile",-33.346219649999995,-70.50595155046894,True,6.725276720896702
469,471,"Colina, Barrio Portezuelo",Colina,"Barrio Portezuelo, San Miguel, Colina, Provincia de Chacabuco, Región Metropolitana de Santiago, Chile",-33.2145465,-70.6819488,True,16.65505552538083
470,472,"Independencia, Pintor Cicarelli",Independencia,"Pintor Cicarelli, Independencia, Provincia de Santiago, Región Metropolitana de Santiago, 8420000, Chile",-33.4085568,-70.6557368,True,3.2167693632880763
471,473,"Peñalolén, Camino las pircas",Peñalolén,"Peñalolén, Provincia de Santiago, Región Metropolitana de Santiago, Chile",-33.48622465,-70.50929029561439,False,0.0
472,474,"Peñalolén, Francisco gonzalez / pedro lira",Peñalolén,"Peñalolén, Provincia de Santiago, Región Metropolitana de Santiago, Chile",-33.48622465,-70.50929029561439,False,0.0
473,475,"Puente Alto, Cam. del Mirador 06607",Puente Alto,"Puente Alto, Provincia de Cordillera, Región Metropolitana de Santiago, Chile",-33.6095279,-70.5754736,False,0.0
474,476,"Maipú, Maipú, Región Metropolitana",Maipú,"Maipú, Provincia de Santiago, Región Metropolitana de Santiago, 9251542, Chile",-33.5094409,-70.756182,True,0.0
475,477,"Conchalí, Av. Fermin Vivaceta(ag)/Catorce de La Fama",Conchalí,"Conchalí, Provincia de Santiago, Región Metropolitana de Santiago, Chile",-33.3843238,-70.67473455935627,False,0.0
476,478,"Lo Barnechea, Los Flamencos/Pedro Lira Urqueta",Lo Barnechea,"Lo Barnechea, Provincia de Santiago, Región Metropolitana de Santiago, Chile",-33.2935888,-70.39035501440654,False,0.0
477,479,"Santiago, Arturo Prat/San Diego",Santiago,"Arturo Prat, Villa Edén, La Florida, Talca, Provincia de Talca, Región del Maule, 3460000, Chile",-35.4336951,-71.6756283,True,226.1639581638633
478,480,"Maipú, Maipú, Región Metropolitana",Maipú,"Maipú, Provincia de Santiago, Región Metropolitana de Santiago, 9251542, Chile",-33.5094409,-70.756182,True,0.0
479,481,"Quilicura, san ignasio de loyola 2",Quilicura,"Quilicura, Provincia de Santiago, Región Metropolitana de Santiago, Chile",-33.3552701,-70.7443552450391,False,0.0
480,482,"Santiago, Pastor Fernández & La Disputada",Santiago,"Santiago, Provincia de Santiago, Región Metropolitana de Santiago, 8320000, Chile",-33.4377756,-70.6504502,False,0.0
481,483,"Colina, Las Brisas de Chicureo",Colina,"Las Brisas de Chicureo, Las Brisas, San Jaime, Lo Arcaya - Casas Viejas, Colina, Provincia de Chacabuco, Región Metropolitana de Santiago, Chile",-33.2386811,-70.6953615,True,13.712405010446616
482,484,"Santiago, Trinidad Oriente",Santiago,"Iglesia Evangélica Pentecostal, Trinidad Oriente, Avenida Trinidad Oriente, La Florida, Provincia de Santiago, Región Metropolitana de Santiago, 8240000, Chile",-33.5476317,-70.5753625,True,3.452959447775527
483,485,"San Bernardo, Superintendente Joaquin Guzman, San Bernardo",San Bernardo,"San Bernardo, Rio Mayo, Nariño, Colombia",1.533534,-77.01845480416105,False,0.0
484,486,"Peñalolén, Hacienda Macul/Quilin",Peñalolén,"Peñalolén, Provincia de Santiago, Región Metropolitana de Santiago, Chile",-33.48622465,-70.50929029561439,False,0.0
485,487,"La Florida, (YC 53917) Los Pellines/(YC 53917) Rengo",La Florida,"La Florida, Provincia de Santiago, Región Metropolitana de Santiago, Chile",-33.530816599999994,-70.54407548567474,False,0.0
486,488,"Buin, Ernesto Cornejo Tapia 0369",Buin,"Buin, Provincia de Maipo, Región Metropolitana de Santiago, Chile",-33.7319741,-70.7419619,False,19.4908754652278
487,489,"Peñaflor, Avenida Miraflores",Peñaflor,"Avenida Miraflores, Parque Miraflores, Pajaritos, Peñaflor, Provincia de Talagante, Región Metropolitana de Santiago, Chile",-33.6002437,-70.8662711,True,14.350877247167098
488,490,"La Pintana, Isla tamar",La Pintana,"Isla Tamar, Villa Estrecho de Magallanes, La Pintana, Provincia de Santiago, Región Metropolitana de Santiago, 8150513, Chile",-33.5882733,-70.6179946,True,1.2261965008502582
489,491,"Santiago, Villa el Alba",Santiago,"Villa El Alba, Puente Alto, Provincia de Cordillera, Región Metropolitana de Santiago, 8220093, Chile",-33.5503824,-70.5598728,True,2.619586172886939
490,492,"Las Condes, La niña, las condes",Las Condes,"Las Condes, Provincia de Santiago, Región Metropolitana de Santiago, Chile",-33.4247879,-70.51749760753927,False,0.0
491,493,"San Bernardo, San Bernardo, Región Metropolitana",San Bernardo,"San Bernardo, Santa Clara, Melipilla, Provincia de Melipilla, Región Metropolitana de Santiago, Chile",-33.5729125,-71.0848251,True,14.149232574178612
492,494,"Santiago, Guillermo Marconi 1963",Santiago,"Guillermo Marconi, Santiago, Provincia de Santiago, Región Metropolitana de Santiago, 8360848, Chile",-33.4702364,-70.6277024,True,3.0771291519194413
493,495,"Las Condes, Hernando de Magallanes",Las Condes,"Hernando de Magallanes, Avenida Apoquindo, Renacimiento Italiano, Las Condes, Provincia de Santiago, Región Metropolitana de Santiago, 7550000, Chile",-33.4079416,-70.5558417,True,3.212533311627483
494,496,"Quinta Normal, Brisas del Río",Quinta Normal,"Brisas del Río, Quinta Normal, Provincia de Santiago, Región Metropolitana de Santiago, 9100277, Chile",-33.4116115,-70.7142846,True,1.7894900056091192
495,497,"Peñalolén, Camino Peñalolen/José Arrieta",Peñalolén,"Camino Peñalolén / José Arrieta, Avenida José Arrieta, Peñalolén, Provincia de Santiago, Región Metropolitana de Santiago, 7940068, Chile",-33.4629497,-70.5417652,True,0.9987804903900285
496,498,"Providencia, Manuel montt / valenzuela castillo / alférez real",Providencia,"Providencia, Los Abades, Nariño, Colombia",1.2420408,-77.6009953089243,False,0.0
497,499,"Puente Alto, Estación Ignao",Puente Alto,"Pasaje Estación Ignao, Villa Estaciones Ferroviarias, Puente Alto, Provincia de Cordillera, Región Metropolitana de Santiago, 8153644, Chile",-33.6214816,-70.6146805,True,3.8724067596442273
498,500,"Puente Alto, Eyzaguirre Autopista Acceso Sur",Puente Alto,"Puente Alto, Provincia de Cordillera, Región Metropolitana de Santiago, Chile",-33.6095279,-70.5754736,False,0.0
499,501,"San Bernardo, Puerto Williams con San Jose",San Bernardo,"San Bernardo, Rio Mayo, Nariño, Colombia",1.533534,-77.01845480416105,False,0.0
500,502,"Colina, santa filomena 12.605",Colina,"Santa Filomena, Las Pircas de Chicureo, Colina, Provincia de Chacabuco, Región Metropolitana de Santiago, Chile",-33.2166169,-70.6526403,True,16.561863569130097
501,503,"Santiago, Santiago, Región Metropolitana",Santiago,"San Pablo 2966 5to Piso, Santiago, Región Metropolitana, Chile, 2966, Avenida San Pablo, Santiago, Provincia de Santiago, Región Metropolitana de Santiago, 8350485, Chile",-33.4354421,-70.6766162,True,2.4469080872498097
