,prop_id,address,comuna,loc_address,loc_latitude,loc_longitude,state,closest_equip_cult_dist
0,1,"Calera de Tango, Queilen",Calera de Tango,"Queilen, Condominio Santa Teresa, Palermo, Calera de Tango, Provincia de Maipo, Región Metropolitana de Santiago, 9710000, Chile",-33.625736,-70.8036481,True,13.630972914448495
1,2,"Calera de Tango, Queilen",Calera de Tango,"Queilen, Condominio Santa Teresa, Palermo, Calera de Tango, Provincia de Maipo, Región Metropolitana de Santiago, 9710000, Chile",-33.625736,-70.8036481,True,13.630972914448495
2,3,"Calera de Tango, Avenida calera de tango   condominio/santa teresa de tango - el barrancon",Calera de Tango,"Calera de Tango, Provincia de Maipo, Región Metropolitana de Santiago, Chile",-33.6308224,-70.7592987,False,13.118610895828157
3,4,"Calera de Tango, Paradero 14 1/2/5 kilometros cruce calera de tango",Calera de Tango,"Calera de Tango, Provincia de Maipo, Región Metropolitana de Santiago, Chile",-33.6308224,-70.7592987,False,13.118610895828157
4,5,"Calera de Tango, Condominio El Trébol de Calera de Tango",Calera de Tango,"Calera de Tango, Provincia de Maipo, Región Metropolitana de Santiago, Chile",-33.6308224,-70.7592987,False,13.118610895828157
5,6,"Calera de Tango, Lonquen Sur/Calera de Tango",Calera de Tango,"Calera de Tango, Provincia de Maipo, Región Metropolitana de Santiago, Chile",-33.6308224,-70.7592987,False,13.118610895828157
6,7,"Calera de Tango, Graciela Letelier de Ibañez N 29, camino lonquen. A 7 km de mall plaza oeste",Calera de Tango,"Calera de Tango, Provincia de Maipo, Región Metropolitana de Santiago, Chile",-33.6308224,-70.7592987,False,13.118610895828157
7,8,"Calera de Tango, Camino loreto/condominio santa cruz de loreto",Calera de Tango,"Calera de Tango, Provincia de Maipo, Región Metropolitana de Santiago, Chile",-33.6308224,-70.7592987,False,13.118610895828157
8,9,"Calera de Tango, Lonquen/Calera de tango",Calera de Tango,"Colegio Calera de Tango, Camino a Lonquén, Condominio Santa Teresa, Palermo, Calera de Tango, Provincia de Maipo, Región Metropolitana de Santiago, 9710000, Chile",-33.63662265,-70.81142728474555,True,15.009905458318688
9,10,"Calera de Tango, Condominio Los Almendros Sur/Avda Calera de Tango CV",Calera de Tango,"Calera de Tango, Provincia de Maipo, Región Metropolitana de Santiago, Chile",-33.6308224,-70.7592987,False,13.118610895828157
10,11,"Calera de Tango, Condominio la virgen/frente a restaurante kugenhouse",Calera de Tango,"Calera de Tango, Provincia de Maipo, Región Metropolitana de Santiago, Chile",-33.6308224,-70.7592987,False,13.118610895828157
11,12,"Calera de Tango, Graciela Letelier",Calera de Tango,"Calera de Tango, Provincia de Maipo, Región Metropolitana de Santiago, Chile",-33.6308224,-70.7592987,False,13.118610895828157
12,13,"Calera de Tango, Calera de Tango",Calera de Tango,"San Agustín de Tango, Calera de Tango, Provincia de Maipo, Región Metropolitana de Santiago, Chile",-33.6184816,-70.7559075,True,12.094225419265031
13,14,"Calera de Tango, Parcela de 5.000 m2 con casa en ex Colonia El Trébol. Calera de Tango",Calera de Tango,"Calera de Tango, Provincia de Maipo, Región Metropolitana de Santiago, Chile",-33.6308224,-70.7592987,False,13.118610895828157
14,15,"Cerrillos, Don orione",Cerrillos,"Don Orione, Villa Santa Adela, Cerrillos, Provincia de Santiago, Región Metropolitana de Santiago, 9222145, Chile",-33.5016325,-70.7171756,True,3.2750483011099107
15,16,"Cerrillos, Fernandez Albano",Cerrillos,"Avenida Fernández Albano, Barrio Portal Oeste, Cerrillos, Provincia de Santiago, Región Metropolitana de Santiago, 9222145, Chile",-33.5089753,-70.7071506,True,2.039299566765028
16,17,"Cerrillos, Ongolmo",Cerrillos,"Ongolmo, Cerrillos, Provincia de Santiago, Región Metropolitana de Santiago, 9222145, Chile",-33.499241,-70.7224941,True,3.328372386711039
17,18,"Cerrillos, Los Jazmines 274",Cerrillos,"Los Jazmines, Barrio Apóstoles, Cerrillos, Provincia de Santiago, Región Metropolitana de Santiago, 9222145, Chile",-33.5084486,-70.7288091,True,2.545678119237662
18,19,"Cerrillos, General José Bernales Ramírez",Cerrillos,"General José Bernales Ramírez, Barrio Portal Oeste, Cerrillos, Provincia de Santiago, Región Metropolitana de Santiago, 8470572, Chile",-33.5067825,-70.7052746,True,2.070807335127514
19,20,"Cerrillos, Cerrillos",Cerrillos,"Cerrillos, Corredor Transantiago Pedro Aguirre Cerda, Cerrillos, Provincia de Santiago, Región Metropolitana de Santiago, 9210007, Chile",-33.4834216,-70.6955488,True,2.056393603590415
20,21,,Cerrillos,"Nanno, Ville d'Anaunia, Comunità della Val di Non, Provincia di Trento, Trentino-Alto Adige/Südtirol, 38012, Italia",46.3144754,11.0480288,True,927.9428095309612
21,22,"Cerrillos, Julio Verne",Cerrillos,"Julio Verne, Barrio Apóstoles, Cerrillos, Provincia de Santiago, Región Metropolitana de Santiago, 9222145, Chile",-33.5011936,-70.7186204,True,3.4104206624541336
22,23,,Cerrillos,"Nanno, Ville d'Anaunia, Comunità della Val di Non, Provincia di Trento, Trentino-Alto Adige/Südtirol, 38012, Italia",46.3144754,11.0480288,True,927.9428095309612
23,24,"Cerrillos, El Universo",Cerrillos,"El Universo, Barrio Apóstoles, Cerrillos, Provincia de Santiago, Región Metropolitana de Santiago, 9222145, Chile",-33.5030503,-70.7311847,True,2.4283917901798553
24,25,"Cerrillos, Cerrillos",Cerrillos,"Cerrillos, Corredor Transantiago Pedro Aguirre Cerda, Cerrillos, Provincia de Santiago, Región Metropolitana de Santiago, 9210007, Chile",-33.4834216,-70.6955488,True,2.056393603590415
25,26,"Cerrillos, Ing juan cerón reyes",Cerrillos,"Cerrillos, Curacaví, Provincia de Melipilla, Región Metropolitana de Santiago, Chile",-33.4544314,-71.0283709,False,0.0
26,27,"Cerrillos, Padre tomas Roggia 2641",Cerrillos,"Padre Tomás Roggia, Barrio Portal Oeste, Cerrillos, Provincia de Santiago, Región Metropolitana de Santiago, 9222145, Chile",-33.5085735,-70.7068068,True,2.0418276775622513
27,28,"Cerrillos, Casa 2 Pisos en Condominio Altos de Don Orione",Cerrillos,"Cerrillos, Curacaví, Provincia de Melipilla, Región Metropolitana de Santiago, Chile",-33.4544314,-71.0283709,False,0.0
28,29,"Cerrillos, Caupolicán 7195",Cerrillos,"7195, Caupolicán, Cerrillos, Provincia de Santiago, Región Metropolitana de Santiago, 9222145, Chile",-33.49688777777778,-70.72416795555556,True,3.2844292412463543
29,30,"Cerrillos, Catorce de Octubre",Cerrillos,"Cerrillos, Curacaví, Provincia de Melipilla, Región Metropolitana de Santiago, Chile",-33.4544314,-71.0283709,False,0.0
30,31,"Cerro Navia, Huelen 1581",Cerro Navia,"Huelén, Cerro Navia, Provincia de Santiago, Región Metropolitana de Santiago, 000000, Chile",-33.4219268,-70.7404921,True,0.6415942746596924
31,32,"Cerro Navia, Presidente Prieto",Cerro Navia,"Presidente Prieto, Cerro Navia, Provincia de Santiago, Región Metropolitana de Santiago, 9010290, Chile",-33.4280544,-70.7266756,True,1.8272587809481986
32,33,"Cerro Navia, Doctor Avendaño",Cerro Navia,"Doctor Avendaño, Cerro Navia, Provincia de Santiago, Región Metropolitana de Santiago, 9100277, Chile",-33.4164837,-70.7363033,True,1.3375616561978354
33,34,"Colina, Caletera San Martin/Carretera San Martin",Colina,"Colina, Região Imediata de Barretos, Região Geográfica Intermediária de Ribeirão Preto, São Paulo, Região Sudeste, 14770-000, Brasil",-20.711443,-48.53867,False,1816.8198646604321
34,35,"Colina, General San Martin",Colina,"General San Martin, Carretera San Martín, Lo Arcaya - Casas Viejas, Colina, Provincia de Chacabuco, Región Metropolitana de Santiago, Chile",-33.2356263,-70.6944878,True,14.059051475297043
35,36,"Colina, Av. Chicureo/Alba 2",Colina,"El Alba 2, El Alba Dos, Chicureo, Los Ingleses, Colina, Provincia de Chacabuco, Región Metropolitana de Santiago, Chile",-33.2933356,-70.6754017,True,8.578805801006151
36,37,"Colina, Av Chamisero Portezuelo III calle el tranque Oriente colina",Colina,"Colina, Região Imediata de Barretos, Região Geográfica Intermediária de Ribeirão Preto, São Paulo, Região Sudeste, 14770-000, Brasil",-20.711443,-48.53867,False,1816.8198646604321
37,38,"Colina, Las Brisas de Chicureo",Colina,"Las Brisas de Chicureo, Las Brisas, San Jaime, Lo Arcaya - Casas Viejas, Colina, Provincia de Chacabuco, Región Metropolitana de Santiago, Chile",-33.2386811,-70.6953615,True,13.712405010446616
38,39,,Colina,"Nanno, Ville d'Anaunia, Comunità della Val di Non, Provincia di Trento, Trentino-Alto Adige/Südtirol, 38012, Italia",46.3144754,11.0480288,True,927.9428095309612
39,40,"Colina, Haya Austral 772",Colina,"Colina, Região Imediata de Barretos, Região Geográfica Intermediária de Ribeirão Preto, São Paulo, Região Sudeste, 14770-000, Brasil",-20.711443,-48.53867,False,1816.8198646604321
40,41,"Colina, Altos de la Reserva",Colina,"Altos de La Reserva, Colina, Provincia de Chacabuco, Región Metropolitana de Santiago, 8710022, Chile",-33.3203034,-70.6938838,True,6.092427177159718
41,42,"Colina, Avda Chicureo/Caletera General San Martin",Colina,"Colina, Região Imediata de Barretos, Região Geográfica Intermediária de Ribeirão Preto, São Paulo, Região Sudeste, 14770-000, Brasil",-20.711443,-48.53867,False,1816.8198646604321
42,43,"Colina, Cerro Santa Isabel",Colina,"Cerro Santa Isabel, Colina, Provincia de Chacabuco, Región Metropolitana de Santiago, Chile",-33.2415628,-70.6708434,True,14.013704272577678
43,44,"Colina, Camino Guay Guay/Av. Chicureo",Colina,"Colina, Região Imediata de Barretos, Região Geográfica Intermediária de Ribeirão Preto, São Paulo, Região Sudeste, 14770-000, Brasil",-20.711443,-48.53867,False,1816.8198646604321
44,45,"Colina, Camino santa Elena",Colina,"Colina, Região Imediata de Barretos, Região Geográfica Intermediária de Ribeirão Preto, São Paulo, Região Sudeste, 14770-000, Brasil",-20.711443,-48.53867,False,1816.8198646604321
45,46,"Colina, El Algarrobo/Avenida Chicureo",Colina,"Colina, Região Imediata de Barretos, Região Geográfica Intermediária de Ribeirão Preto, São Paulo, Região Sudeste, 14770-000, Brasil",-20.711443,-48.53867,False,1816.8198646604321
46,47,"Colina, Las campiñas",Colina,"Las Campiñas, Lo Arcaya - Casas Viejas, Colina, Provincia de Chacabuco, Región Metropolitana de Santiago, Chile",-33.2541491,-70.6796327,True,12.73247676949582
47,48,"Colina, Chicureo",Colina,"Chicureo, Colina, Provincia de Chacabuco, Región Metropolitana de Santiago, Chile",-33.2807926,-70.6367356,True,9.437102843490546
48,49,"Colina, Camino San Alselmo/Guay Guay",Colina,"Colina, Região Imediata de Barretos, Região Geográfica Intermediária de Ribeirão Preto, São Paulo, Região Sudeste, 14770-000, Brasil",-20.711443,-48.53867,False,1816.8198646604321
49,50,"Colina, Condominio El Cobijo",Colina,"Colina, Região Imediata de Barretos, Região Geográfica Intermediária de Ribeirão Preto, São Paulo, Região Sudeste, 14770-000, Brasil",-20.711443,-48.53867,False,1816.8198646604321
50,51,"Colina, Av. El Valle / El Algarrobo",Colina,"Colina, Região Imediata de Barretos, Região Geográfica Intermediária de Ribeirão Preto, São Paulo, Região Sudeste, 14770-000, Brasil",-20.711443,-48.53867,False,1816.8198646604321
51,52,"Colina, Lo arcaya",Colina,"Lo Arcaya, Brisas de Chicureo, San Jaime, Lo Arcaya - Casas Viejas, Colina, Provincia de Chacabuco, Región Metropolitana de Santiago, Chile",-33.2427989,-70.6873462,True,13.557167367789715
52,53,"Colina, Santa María De Chamisero I/Santa María de Chamisero",Colina,"Avenida Chamisero, Santa María de Chicureo, Chamisero, Colina, Provincia de Chacabuco, Región Metropolitana de Santiago, 8600651, Chile",-33.3231975,-70.6318358,True,4.82804543552052
53,54,"Colina, Peaje Lo Pinto Colina",Colina,"Colina, Região Imediata de Barretos, Região Geográfica Intermediária de Ribeirão Preto, São Paulo, Região Sudeste, 14770-000, Brasil",-20.711443,-48.53867,False,1816.8198646604321
54,55,"Colina, Condominio Club de Golf, Las Brisas de Chicureo",Colina,"Colina, Região Imediata de Barretos, Região Geográfica Intermediária de Ribeirão Preto, São Paulo, Região Sudeste, 14770-000, Brasil",-20.711443,-48.53867,False,1816.8198646604321
55,56,"Colina, Hacienda Chacabuco km 20",Colina,"Hacienda Chacabuco, Colina, Provincia de Chacabuco, Región Metropolitana de Santiago, Chile",-33.0263406,-70.6665629,True,37.195127511915494
56,57,"Colina, Novelista Januario Espinoza",Colina,"Colina, Região Imediata de Barretos, Região Geográfica Intermediária de Ribeirão Preto, São Paulo, Região Sudeste, 14770-000, Brasil",-20.711443,-48.53867,False,1816.8198646604321
57,58,"Colina, Altos de la Reserva",Colina,"Altos de La Reserva, Colina, Provincia de Chacabuco, Región Metropolitana de Santiago, 8710022, Chile",-33.3203034,-70.6938838,True,6.092427177159718
58,59,"Colina, Chicureo, Parcela de Agrado en Condominio Santa Luisa de Los Ingleses.",Colina,"Colina, Região Imediata de Barretos, Região Geográfica Intermediária de Ribeirão Preto, São Paulo, Região Sudeste, 14770-000, Brasil",-20.711443,-48.53867,False,1816.8198646604321
59,60,"Colina, Los Ingleses/Chicureo",Colina,"Chicureo, Los Ingleses, Colina, Provincia de Chacabuco, Región Metropolitana de Santiago, Chile",-33.2861506,-70.676988,True,9.377739858717346
60,61,"Colina, Patriota Javiera Carrera",Colina,"Pasaje Patriota Javiera Carrera, Villa Cordillera, Colina, Provincia de Chacabuco, Región Metropolitana de Santiago, Chile",-33.1899493,-70.6759346,True,19.412049870578983
61,62,"Colina, Chicureo, Excelente Parcela de Agrado en Casas del Alba",Colina,"Colina, Região Imediata de Barretos, Região Geográfica Intermediária de Ribeirão Preto, São Paulo, Região Sudeste, 14770-000, Brasil",-20.711443,-48.53867,False,1816.8198646604321
62,63,"Colina, Las Nieves.",Colina,"Las Nieves, Villa Cordillera, Colina, Provincia de Chacabuco, Región Metropolitana de Santiago, Chile",-33.1927815,-70.6741191,True,19.172662541475585
63,64,"Colina, Chicureo",Colina,"Chicureo, Colina, Provincia de Chacabuco, Región Metropolitana de Santiago, Chile",-33.2807926,-70.6367356,True,9.437102843490546
64,65,"Colina, Camino Monasterio/Camino Monasterio",Colina,"Colina, Região Imediata de Barretos, Região Geográfica Intermediária de Ribeirão Preto, São Paulo, Região Sudeste, 14770-000, Brasil",-20.711443,-48.53867,False,1816.8198646604321
65,66,"Colina, El Valle / Rotonda Piedra Roja/Guay Guay / Copec",Colina,"Colina, Região Imediata de Barretos, Região Geográfica Intermediária de Ribeirão Preto, São Paulo, Região Sudeste, 14770-000, Brasil",-20.711443,-48.53867,False,1816.8198646604321
66,67,"Colina, San José/Santa Cecilia",Colina,"Motel La Colina, Paseo Cuatricentenario, Los  Nísperos, Parroquia Urbana San José, Municipio Valencia, Carabobo, 2001, Venezuela",10.187698,-68.03773482304678,True,986.4304208700154
67,68,"Colina, Chicureo, Parcela de Agrado en Condominio San José.",Colina,"Colina, Região Imediata de Barretos, Região Geográfica Intermediária de Ribeirão Preto, São Paulo, Região Sudeste, 14770-000, Brasil",-20.711443,-48.53867,False,1816.8198646604321
68,69,"Colina, Santa Elena/Chicureo Norte",Colina,"Colina, Região Imediata de Barretos, Região Geográfica Intermediária de Ribeirão Preto, São Paulo, Região Sudeste, 14770-000, Brasil",-20.711443,-48.53867,False,1816.8198646604321
69,70,"Colina, Reina sur",Colina,"Reina Sur, San Miguel, Colina, Provincia de Chacabuco, Región Metropolitana de Santiago, Chile",-33.1982125,-70.6999601,True,17.90342476779284
70,71,"Colina, Domingo Campos Lagos",Colina,"Domingo Campos Lagos, Población Claudio Arrau II, Esmeralda, Colina, Provincia de Chacabuco, Región Metropolitana de Santiago, Chile",-33.1905615,-70.6661082,True,19.54654723319149
71,72,"Colina, San Vicente de Lo Arcaya/General San Martín - Colina",Colina,"Colina, Região Imediata de Barretos, Região Geográfica Intermediária de Ribeirão Preto, São Paulo, Região Sudeste, 14770-000, Brasil",-20.711443,-48.53867,False,1816.8198646604321
72,73,"Colina, Colina",Colina,"Colina, Região Imediata de Barretos, Região Geográfica Intermediária de Ribeirão Preto, São Paulo, Região Sudeste, 14770-000, Brasil",-20.733,-48.59988888888888,True,1811.5594887196887
73,74,"Colina, Camino san josé",Colina,"Camino San José, Los Ciruelos, San Jaime, Lo Arcaya - Casas Viejas, Colina, Provincia de Chacabuco, Región Metropolitana de Santiago, Chile",-33.2385965,-70.7021659,True,13.52370280198493
74,75,"Colina, Colina",Colina,"Colina, Região Imediata de Barretos, Região Geográfica Intermediária de Ribeirão Preto, São Paulo, Região Sudeste, 14770-000, Brasil",-20.733,-48.59988888888888,True,1811.5594887196887
75,76,"Colina, Santa Elena/San Miguel",Colina,"San Miguel de Liray, Alimex, Las Cañas, San Miguel, Colina, Provincia de Chacabuco, Región Metropolitana de Santiago, Chile",-33.2144279,-70.7180498,True,15.811769747609867
76,77,"Colina, Colina",Colina,"Colina, Região Imediata de Barretos, Região Geográfica Intermediária de Ribeirão Preto, São Paulo, Região Sudeste, 14770-000, Brasil",-20.733,-48.59988888888888,True,1811.5594887196887
77,78,"Colina, Condominio Polo Mahuida Country Club",Colina,"Colina, Região Imediata de Barretos, Região Geográfica Intermediária de Ribeirão Preto, São Paulo, Região Sudeste, 14770-000, Brasil",-20.711443,-48.53867,False,1816.8198646604321
78,79,"Conchalí, Av. Jose Maria Caro 1372",Conchalí,"Conchalí, Provincia de Santiago, Región Metropolitana de Santiago, Chile",-33.3843238,-70.67473455935627,False,0.0
79,80,"Conchalí, Cardenal Caro metro station",Conchalí,"Cardenal Caro, Avenida Independencia, Conchalí, Provincia de Santiago, Región Metropolitana de Santiago, 8710022, Chile",-33.3732571,-70.6863154,True,1.6333476079219085
80,81,"Conchalí, Niterói",Conchalí,"Niteroi, Conchalí, Provincia de Santiago, Región Metropolitana de Santiago, 8380741, Chile",-33.3967964,-70.6641486,True,1.6981508148982398
81,82,,Conchalí,"Nanno, Ville d'Anaunia, Comunità della Val di Non, Provincia di Trento, Trentino-Alto Adige/Südtirol, 38012, Italia",46.3144754,11.0480288,True,927.9428095309612
82,83,"Conchalí, Porto Alegre 1415",Conchalí,"Porto Alegre, Conchalí, Provincia de Santiago, Región Metropolitana de Santiago, 8380741, Chile",-33.3958461,-70.6628175,True,1.6918980087787732
83,84,"Conchalí, Tokio",Conchalí,"Tokio, Conchalí, Provincia de Santiago, Región Metropolitana de Santiago, 8710022, Chile",-33.3768213,-70.6809845,True,1.0151935197837507
84,85,,Conchalí,"Nanno, Ville d'Anaunia, Comunità della Val di Non, Provincia di Trento, Trentino-Alto Adige/Südtirol, 38012, Italia",46.3144754,11.0480288,True,927.9428095309612
85,86,"Conchalí, Eibar 1542",Conchalí,"Eibar, Villa Don Pedro, Conchalí, Provincia de Santiago, Región Metropolitana de Santiago, 8380741, Chile",-33.3902578,-70.6718562,True,0.7105500509755442
86,87,"Conchalí, Casa en Carlos Salas Herrera",Conchalí,"Conchalí, Provincia de Santiago, Región Metropolitana de Santiago, Chile",-33.3843238,-70.67473455935627,False,0.0
87,88,"Conchalí, Calle g/pasaje iloca",Conchalí,"Conchalí, Provincia de Santiago, Región Metropolitana de Santiago, Chile",-33.3843238,-70.67473455935627,False,0.0
88,89,"Conchalí, Campanario/Pucón",Conchalí,"Conchalí, Provincia de Santiago, Región Metropolitana de Santiago, Chile",-33.3843238,-70.67473455935627,False,0.0
89,90,"Conchalí, Maipo",Conchalí,"Maipo, Conchalí, Provincia de Santiago, Región Metropolitana de Santiago, 8380741, Chile",-33.3986859,-70.6619345,True,1.9888767516045875
90,91,"Conchalí, Alemania",Conchalí,"Pasaje Alemania, Villa Don Pedro, Conchalí, Provincia de Santiago, Región Metropolitana de Santiago, 8380741, Chile",-33.3938978,-70.6806551,True,1.1962428432645709
91,92,"Conchalí, Av. Independencia/quilicura/metro vivaceta",Conchalí,"Conchalí, Provincia de Santiago, Región Metropolitana de Santiago, Chile",-33.3843238,-70.67473455935627,False,0.0
92,93,"Conchalí, Casa esquina en Avenida / 180 m2 / 4 dormitorios / 2 baños",Conchalí,"Conchalí, Provincia de Santiago, Región Metropolitana de Santiago, Chile",-33.3843238,-70.67473455935627,False,0.0
93,94,"Conchalí, Avenida Cardenal José María Caro",Conchalí,"Avenida Diagonal Cardenal José María Caro, Conchalí, Provincia de Santiago, Región Metropolitana de Santiago, 8710022, Chile",-33.3741939,-70.6935119,True,2.0773065327697626
94,95,"Conchalí, Pasaje Maipo 1484",Conchalí,"Conchalí, Provincia de Santiago, Región Metropolitana de Santiago, Chile",-33.3843238,-70.67473455935627,False,0.0
95,96,,Conchalí,"Nanno, Ville d'Anaunia, Comunità della Val di Non, Provincia di Trento, Trentino-Alto Adige/Südtirol, 38012, Italia",46.3144754,11.0480288,True,927.9428095309612
96,97,,Conchalí,"Nanno, Ville d'Anaunia, Comunità della Val di Non, Provincia di Trento, Trentino-Alto Adige/Südtirol, 38012, Italia",46.3144754,11.0480288,True,927.9428095309612
97,98,"Conchalí, Conchalí, Región Metropolitana",Conchalí,"Conchalí, Avenida Independencia, Conchalí, Provincia de Santiago, Región Metropolitana de Santiago, 8380741, Chile",-33.3978786,-70.6695852,True,1.5778737419308637
98,99,"Conchalí, Casa de 2 pisos en Vivaceta",Conchalí,"Conchalí, Provincia de Santiago, Región Metropolitana de Santiago, Chile",-33.3843238,-70.67473455935627,False,0.0
99,100,"El Bosque, Eleutrio Ramirez/Alejandro Guzman",El Bosque,"El Bosque, Chiapas, México",17.0247264,-92.74723009318356,False,0.0
100,101,"El Bosque, las casitas/los patos",El Bosque,"El Bosque, Chiapas, México",17.0247264,-92.74723009318356,False,0.0
101,102,"El Bosque, Gran Avenida/America",El Bosque,"El Bosque, Chiapas, México",17.0247264,-92.74723009318356,False,0.0
102,103,"El Bosque, Casa de 1 Piso en Conjunto Héroes del Morro",El Bosque,"El Bosque, Chiapas, México",17.0247264,-92.74723009318356,False,0.0
103,104,"El Bosque, Casa 220 m2, amplios espacios",El Bosque,"El Bosque, Chiapas, México",17.0247264,-92.74723009318356,False,0.0
104,105,"El Bosque, Eleuterio Ramírez",El Bosque,"Eleuterio Ramírez, Dieciocho de Septiembre, Pitrufquén, Provincia de Cautín, Región de la Araucanía, Chile",-38.9868341,-72.6428113,True,624.8645492042535
105,106,"El Bosque, Casa en Lo Espejo",El Bosque,"El Bosque, Chiapas, México",17.0247264,-92.74723009318356,False,0.0
106,107,"El Bosque, Casa de 1 Piso en Villa Santa María",El Bosque,"El Bosque, Chiapas, México",17.0247264,-92.74723009318356,False,0.0
107,108,"El Bosque, Pasaje Los Tilos 11966",El Bosque,"Pasaje Los Tilos, El Bosque, Provincia de Santiago, Región Metropolitana de Santiago, 8010000, Chile",-33.5661904,-70.6647223,True,3.7579841488169383
108,109,"El Bosque, Humberto Allende",El Bosque,"Humberto Allende, El Bosque, Provincia de Santiago, Región Metropolitana de Santiago, 8012117, Chile",-33.5651802,-70.6836325,True,4.34723235843551
109,110,"El Bosque, Gran Avenida, El Observatorio",El Bosque,"El Bosque, Chiapas, México",17.0247264,-92.74723009318356,False,0.0
110,111,"El Bosque, Gral.Korner/j.M.Carrera/victor plaza mayorga",El Bosque,"El Bosque, Chiapas, México",17.0247264,-92.74723009318356,False,0.0
111,112,"El Bosque, Los Boldos 12360,",El Bosque,"Los Boldos, El Bosque, Provincia de Santiago, Región Metropolitana de Santiago, 8012117, Chile",-33.5613002,-70.6699918,True,3.566736125062208
112,113,"El Bosque, Calle nuevo Horizonte 684",El Bosque,"El Bosque, Chiapas, México",17.0247264,-92.74723009318356,False,0.0
113,114,"El Bosque, Mauricio Rugendas 12971",El Bosque,"El Bosque, Chiapas, México",17.0247264,-92.74723009318356,False,0.0
114,115,"El Bosque, Av. Central 87",El Bosque,"Avenida 25 de Junio, Simon Bolivar, Machala, El Oro, 070205, Ecuador",-3.2674284,-79.9498493,True,562.9824599709973
115,116,"El Bosque, Lo moreno",El Bosque,"Lo Moreno, El Bosque, Provincia de Santiago, Región Metropolitana de Santiago, 8012117, Chile",-33.575399,-70.687197,True,5.398782428064346
116,117,,El Bosque,"Nanno, Ville d'Anaunia, Comunità della Val di Non, Provincia di Trento, Trentino-Alto Adige/Südtirol, 38012, Italia",46.3144754,11.0480288,True,927.9428095309612
117,118,"El Monte, Casa de 1 Piso en Villa Eden. El Monte",El Monte,"El Monte, Los Angeles County, California, 91731, United States",34.0751571,-118.036849,False,518.5641545258903
118,120,"El Monte, Los Libertadores",El Monte,"Los Libertadores, Fundo Monte Verde, El Monte, Provincia de Talagante, Región Metropolitana de Santiago, Chile",-33.682519,-71.0013878,True,25.42200247541103
119,121,"Estación Central, Av las torres/av santa corina",Estación Central,"Estación Central, Provincia de Santiago, Región Metropolitana de Santiago, Chile",-33.4629494,-70.70490935867974,False,0.0
120,122,"Estación Central, Paraguay/Francisco Zelada",Estación Central,"Estación Central, Provincia de Santiago, Región Metropolitana de Santiago, Chile",-33.4629494,-70.70490935867974,False,0.0
121,123,"Estación Central, Los Duraznos 256",Estación Central,"256, Los Duraznos, Estación Central, Provincia de Santiago, Región Metropolitana de Santiago, 9190847, Chile",-33.46362785,-70.710901703125,True,0.5621182254478537
122,124,"Estación Central, El chucao",Estación Central,"Pasaje El Chucao, Condominio Arcadia, Estación Central, Provincia de Santiago, Región Metropolitana de Santiago, 9190847, Chile",-33.4611332,-70.7215975,True,1.5313265839431949
123,125,"Estación Central, Recreo",Estación Central,"Recreo, Estación Central, Provincia de Santiago, Región Metropolitana de Santiago, 9160002, Chile",-33.4582615,-70.6956079,True,1.0089909801693457
124,126,"Estación Central, Av. Las Rejas Sur 300",Estación Central,"300, Avenida Las Rejas Sur, Estación Central, Provincia de Santiago, Región Metropolitana de Santiago, 9190847, Chile",-33.459639333088234,-70.70525467426471,True,0.3685292670038418
125,127,"Estación Central, Pajaritos/alameda/ruta 68/metro las rejas",Estación Central,"Estación Central, Provincia de Santiago, Región Metropolitana de Santiago, Chile",-33.4629494,-70.70490935867974,False,0.0
126,128,"Estación Central, El Altarcillo",Estación Central,"El Altarcillo, Condominio Arcadia, Estación Central, Provincia de Santiago, Región Metropolitana de Santiago, 9190847, Chile",-33.4686716,-70.7192404,True,1.4756547075098359
127,129,"Estación Central, Pingüinos",Estación Central,"Los Pingüinos, Estación Central, Provincia de Santiago, Región Metropolitana de Santiago, 9210007, Chile",-33.4713198,-70.6934981,True,1.4096515201044564
128,130,"Estación Central, Francisco Collao",Estación Central,"Francisco Collao, Estación Central, Provincia de Santiago, Región Metropolitana de Santiago, 9160000, Chile",-33.4642041,-70.6854876,True,1.8108298953050692
129,131,"Estación Central, Propiedad Comercial en Villa Las Rejas",Estación Central,"Estación Central, Provincia de Santiago, Región Metropolitana de Santiago, Chile",-33.4629494,-70.70490935867974,False,0.0
130,132,"Estación Central, Estación Central",Estación Central,"Estación Central, Provincia de Santiago, Región Metropolitana de Santiago, 9160002, Chile",-33.4536375,-70.6898654,True,1.7386067043713147
131,133,"Estación Central, General Velasquez/Jotabeche",Estación Central,"Estación Central, Provincia de Santiago, Región Metropolitana de Santiago, Chile",-33.4629494,-70.70490935867974,False,0.0
132,134,"Huechuraba, Reinaldo Prado",Huechuraba,"Reinaldo Prado, Huechuraba, Provincia de Santiago, Región Metropolitana de Santiago, LAS AZUCENAS, Chile",-33.3738594,-70.6433624,True,0.9034971573155095
133,135,"Huechuraba, Alberto Undurraga",Huechuraba,"Alberto Undurraga, Condominio Terranova, Huechuraba, Provincia de Santiago, Región Metropolitana de Santiago, 8600651, Chile",-33.3568649,-70.6767993,True,3.0515513741080733
134,136,"Huechuraba, Condominio Santa María de Huechuraba",Huechuraba,"Huechuraba, Provincia de Santiago, Región Metropolitana de Santiago, Chile",-33.365721449999995,-70.6429271186091,False,0.0
135,137,"Huechuraba, Villa los libertadores",Huechuraba,"Huechuraba, Provincia de Santiago, Región Metropolitana de Santiago, Chile",-33.365721449999995,-70.6429271186091,False,0.0
136,138,"Huechuraba, Los fresnos / pedro fontova/colegios: san francisco, boston, grace y pumahue.",Huechuraba,"Huechuraba, Provincia de Santiago, Región Metropolitana de Santiago, Chile",-33.365721449999995,-70.6429271186091,False,0.0
137,139,"Huechuraba, Guayalolen",Huechuraba,"Guayalolén, La Pincoya, Huechuraba, Provincia de Santiago, Región Metropolitana de Santiago, LAS AZUCENAS, Chile",-33.372026,-70.640452,True,0.7362059324256359
138,140,"Huechuraba, Del Estero 7556",Huechuraba,"Del Estero, Condominio Terranorte, Huechuraba, Provincia de Santiago, Región Metropolitana de Santiago, 8600651, Chile",-33.3523073,-70.6715802,True,3.0537569128688196
139,141,"Huechuraba, Pedro Fontova/Pedro Fontova",Huechuraba,"Parque Avenida Pedro Fontova, Huechuraba, Provincia de Santiago, Región Metropolitana de Santiago, Chile",-33.347244149999995,-70.67055919675974,True,3.288508622472474
140,142,"Huechuraba, Pedro fontova/camino el roble",Huechuraba,"PB1044-Pedro Fontova / Esq. Camino El Roble, Avenida Pedro Fontova, Condominio Terranorte, Huechuraba, Provincia de Santiago, Región Metropolitana de Santiago, 8600651, Chile",-33.3492484,-70.67075,True,3.1692443545780216
141,143,"Huechuraba, Los Fresnos",Huechuraba,"Los Fresnos, Huechuraba, Provincia de Santiago, Región Metropolitana de Santiago, 8600651, Chile",-33.34518,-70.6664798,True,3.1616883612519486
142,144,"Huechuraba, Calle Camino del Roble N° 1790 casa 13, Huechuraba",Huechuraba,"Huechuraba, Provincia de Santiago, Región Metropolitana de Santiago, Chile",-33.365721449999995,-70.6429271186091,False,0.0
143,145,"Huechuraba, Av santa marta/el sauce",Huechuraba,"Huechuraba, Provincia de Santiago, Región Metropolitana de Santiago, Chile",-33.365721449999995,-70.6429271186091,False,0.0
144,146,"Huechuraba, Camino de Los Fresnos",Huechuraba,"Huechuraba, Provincia de Santiago, Región Metropolitana de Santiago, Chile",-33.365721449999995,-70.6429271186091,False,0.0
145,147,"Huechuraba, Diego Barros Arana con Las Torres",Huechuraba,"Huechuraba, Provincia de Santiago, Región Metropolitana de Santiago, Chile",-33.365721449999995,-70.6429271186091,False,0.0
146,148,"Huechuraba, Camino El Roble/Pedro Fontova Norte",Huechuraba,"Huechuraba, Provincia de Santiago, Región Metropolitana de Santiago, Chile",-33.365721449999995,-70.6429271186091,False,0.0
147,149,"Huechuraba, Pedro fontova/Pedro Fontova",Huechuraba,"Parque Avenida Pedro Fontova, Huechuraba, Provincia de Santiago, Región Metropolitana de Santiago, Chile",-33.347244149999995,-70.67055919675974,True,3.288508622472474
148,150,"Huechuraba, Casa en Villa Valle Verde",Huechuraba,"Huechuraba, Provincia de Santiago, Región Metropolitana de Santiago, Chile",-33.365721449999995,-70.6429271186091,False,0.0
149,151,"Huechuraba, Altos del Carmen",Huechuraba,"Altos del Carmen, Huechuraba, Provincia de Santiago, Región Metropolitana de Santiago, 8600651, Chile",-33.3489214,-70.6735471,True,3.4050116532471173
150,152,"Huechuraba, Fabian Oyanedel",Huechuraba,"Fabián Oyanedel, Huechuraba, Provincia de Santiago, Región Metropolitana de Santiago, LAS AZUCENAS, Chile",-33.373487,-70.6447086,True,0.8770962971472046
151,153,"Huechuraba, Los libertadores/santa marta",Huechuraba,"Huechuraba, Provincia de Santiago, Región Metropolitana de Santiago, Chile",-33.365721449999995,-70.6429271186091,False,0.0
152,154,,Huechuraba,"Nanno, Ville d'Anaunia, Comunità della Val di Non, Provincia di Trento, Trentino-Alto Adige/Südtirol, 38012, Italia",46.3144754,11.0480288,True,927.9428095309612
153,155,"Huechuraba, Sector San Clemente",Huechuraba,"Huechuraba, Provincia de Santiago, Región Metropolitana de Santiago, Chile",-33.365721449999995,-70.6429271186091,False,0.0
154,156,"Huechuraba, Camino de Cintura 1408",Huechuraba,"Camino De Cintura, Huechuraba, Provincia de Santiago, Región Metropolitana de Santiago, 8600651, Chile",-33.3425074,-70.6744605,True,3.9043105980307966
155,157,"Huechuraba, Pedro Fontova",Huechuraba,"Pedro Fontova, Huechuraba, Provincia de Santiago, Región Metropolitana de Santiago, 8600651, Chile",-33.3394439,-70.6678366,True,3.7242248518434655
156,158,"Huechuraba, Camino El Roble 1783",Huechuraba,"1783, Camino El Roble, Condominio Pérgolas de Huechuraba, Huechuraba, Provincia de Santiago, Región Metropolitana de Santiago, 8600651, Chile",-33.34947095,-70.68195593954849,True,3.923550209629569
157,159,"Huechuraba, Pedro fontova norte/santa marta de huechuraba",Huechuraba,"Huechuraba, Provincia de Santiago, Región Metropolitana de Santiago, Chile",-33.365721449999995,-70.6429271186091,False,0.0
158,160,"Huechuraba, pedro fontova",Huechuraba,"Pedro Fontova, Huechuraba, Provincia de Santiago, Región Metropolitana de Santiago, 8600651, Chile",-33.3394439,-70.6678366,True,3.7242248518434655
159,161,"Independencia, Sevilla 1746",Independencia,"Sevilla, Independencia, La Florida, Talca, Provincia de Talca, Región del Maule, 3460000, Chile",-35.4396716,-71.6714424,True,226.5849074096122
160,162,"Independencia, Pintor Cicarelli",Independencia,"Pintor Cicarelli, Independencia, Provincia de Santiago, Región Metropolitana de Santiago, 8420000, Chile",-33.4085568,-70.6557368,True,3.2167693632880763
161,163,"Independencia, Grumete Bustos 658",Independencia,"658, Grumete Bustos, Independencia, Provincia de Santiago, Región Metropolitana de Santiago, 8340309, Chile",-33.42519056938776,-70.66247883469387,True,1.7887538543741353
162,164,"Independencia, Conchalí",Independencia,"Conchalí, Avenida Independencia, Conchalí, Provincia de Santiago, Región Metropolitana de Santiago, 8380741, Chile",-33.3978786,-70.6695852,True,1.5778737419308637
163,165,"Independencia, Longitudinal seis 585",Independencia,"Independencia, República Dominicana",18.3839463,-71.6385932,False,0.0
164,166,"Independencia, Guanaco/Cotapos",Independencia,"Independencia, República Dominicana",18.3839463,-71.6385932,False,0.0
165,167,"Independencia, Maruri 279",Independencia,"279, Maruri, Independencia, Provincia de Santiago, Región Metropolitana de Santiago, 8320012, Chile",-33.42889661836735,-70.65517197959184,True,1.0782444928146733
166,168,"Independencia, Sevilla 1211",Independencia,"Sevilla, Independencia, La Florida, Talca, Provincia de Talca, Región del Maule, 3460000, Chile",-35.4396716,-71.6714424,True,226.5849074096122
167,169,"Independencia, 3 Norte / Gamero",Independencia,"Independencia, República Dominicana",18.3839463,-71.6385932,False,0.0
168,170,"Independencia, Pablo urzua/independencia",Independencia,"Pablo Urzua / Avenida Independencia, Avenida Independencia, Independencia, Provincia de Santiago, Región Metropolitana de Santiago, 8380741, Chile",-33.4018312,-70.6649934,True,2.142855170256067
169,171,,Independencia,"Nanno, Ville d'Anaunia, Comunità della Val di Non, Provincia di Trento, Trentino-Alto Adige/Südtirol, 38012, Italia",46.3144754,11.0480288,True,927.9428095309612
170,172,"Independencia, Enrico Fermi",Independencia,"Independencia, República Dominicana",18.3839463,-71.6385932,False,0.0
171,173,"Independencia, San Luis 1653",Independencia,"1653, San Luis, Independencia, Provincia de Santiago, Región Metropolitana de Santiago, 8390450, Chile",-33.41656322684564,-70.66103383959731,True,2.5503033595588027
172,174,"Independencia, Davila/Echeverria",Independencia,"Independencia, República Dominicana",18.3839463,-71.6385932,False,0.0
173,175,"Independencia, Pasaje indepencia  2538",Independencia,"Independencia, República Dominicana",18.3839463,-71.6385932,False,0.0
174,176,"Independencia, Blanco Fombona 2438",Independencia,"2438, Blanco Fombona, Centro Cívico Juan Antonio Ríos, Independencia, Provincia de Santiago, Región Metropolitana de Santiago, 8390450, Chile",-33.414665995386734,-70.66836666714184,True,3.057132690532531
175,177,"Independencia, Pasaje Echeverria 964, casa 4",Independencia,"Independencia, República Dominicana",18.3839463,-71.6385932,False,0.0
176,178,"Independencia, Entre la Calle Tacora y Reina Maria (Catorce La Fama)",Independencia,"Independencia, República Dominicana",18.3839463,-71.6385932,False,0.0
177,179,"Independencia, Domingo santa maria/maruri",Independencia,"PB1326-Domingo Santa María / Esq. Maruri, Avenida Domingo Santa María, Centro Cívico Juan Antonio Ríos, Independencia, Provincia de Santiago, Región Metropolitana de Santiago, 8390450, Chile",-33.4155852,-70.6589064,True,2.5837764307986744
178,180,"Independencia, Vivaceta/ metro chacabuco/domingo santa maria",Independencia,"Independencia, República Dominicana",18.3839463,-71.6385932,False,0.0
179,181,"Independencia, Gral. Prieto / independencia",Independencia,"Independencia, República Dominicana",18.3839463,-71.6385932,False,0.0
180,182,"Independencia, Autopista central/vivaceta/metro conchalí",Independencia,"Independencia, República Dominicana",18.3839463,-71.6385932,False,0.0
181,183,"Independencia, Chillan / Vivaceta/Hipodromo Chile / Independencia",Independencia,"Independencia, República Dominicana",18.3839463,-71.6385932,False,0.0
182,184,"La Cisterna, Ossa /  pasaje los juncos",La Cisterna,"La Cisterna, Provincia de Santiago, Región Metropolitana de Santiago, Chile",-33.529504200000005,-70.66424867440273,False,0.0
183,185,"La Cisterna, la cisterna",La Cisterna,"La Cisterna, Autopista Vespucio Sur, La Cisterna, Provincia de Santiago, Región Metropolitana de Santiago, 7970671, Chile",-33.5372928,-70.6642731,True,0.8638676562035461
184,186,"La Cisterna, Lo ovalle",La Cisterna,"Lo Ovalle, Gran Avenida José Miguel Carrera, La Cisterna, Provincia de Santiago, Región Metropolitana de Santiago, 7980008, Chile",-33.5172701,-70.6588205,True,1.4475990285667664
185,187,"La Cisterna, Trinidad ramirez/lo espejo",La Cisterna,"La Cisterna, Provincia de Santiago, Región Metropolitana de Santiago, Chile",-33.529504200000005,-70.66424867440273,False,0.0
186,188,"La Cisterna, La Cisterna",La Cisterna,"La Cisterna, Autopista Vespucio Sur, La Cisterna, Provincia de Santiago, Región Metropolitana de Santiago, 7970671, Chile",-33.5372928,-70.6642731,True,0.8638676562035461
187,189,"La Cisterna, Gran Avenida / Americo Vespucio",La Cisterna,"La Cisterna, Provincia de Santiago, Región Metropolitana de Santiago, Chile",-33.529504200000005,-70.66424867440273,False,0.0
188,190,"La Cisterna, Av. Ossa 573",La Cisterna,"573, Avenida Ossa, La Cisterna, Provincia de Santiago, Región Metropolitana de Santiago, 7970670, Chile",-33.54026617131147,-70.65813385163935,True,1.3218949376562252
189,191,"La Cisterna, El parrón",La Cisterna,"El Parrón, Gran Avenida José Miguel Carrera, La Cisterna, Provincia de Santiago, Región Metropolitana de Santiago, 7970670, Chile",-33.5264317,-70.6614044,True,0.431208861380252
190,192,"La Cisterna, La Cisterna",La Cisterna,"La Cisterna, Autopista Vespucio Sur, La Cisterna, Provincia de Santiago, Región Metropolitana de Santiago, 7970671, Chile",-33.5372928,-70.6642731,True,0.8638676562035461
191,193,"La Cisterna, Sta Corina 567",La Cisterna,"Santa Corina, La Cisterna, Provincia de Santiago, Región Metropolitana de Santiago, 7980008, Chile",-33.514519,-70.6626562,True,1.6686362128369407
192,194,"La Cisterna, Gran Avenida/Las Brisas",La Cisterna,"Gran Avenida / Las Brisas, Avenida Las Brisas, La Cisterna, Provincia de Santiago, Región Metropolitana de Santiago, 7970670, Chile",-33.5334623,-70.662713,True,0.4616022846939242
193,195,"La Cisterna, echeverria/victoria",La Cisterna,"La Cisterna, Provincia de Santiago, Región Metropolitana de Santiago, Chile",-33.529504200000005,-70.66424867440273,False,0.0
194,196,"La Cisterna, Brisas del Maipo/Vespucio Sur",La Cisterna,"La Cisterna, Provincia de Santiago, Región Metropolitana de Santiago, Chile",-33.529504200000005,-70.66424867440273,False,0.0
195,197,"La Cisterna, Colón 8187",La Cisterna,"Colón, La Cisterna, Provincia de Santiago, Región Metropolitana de Santiago, 7970000, Chile",-33.5252984,-70.6706649,True,0.7568684107196653
196,198,"La Cisterna, Ernesto Riquelme",La Cisterna,"Ernesto Riquelme, La Cisterna, Provincia de Santiago, Región Metropolitana de Santiago, 7970671, Chile",-33.5455434,-70.6682994,True,1.8183238720740655
197,199,"La Cisterna, Casa 1 Piso en Población San Ramón",La Cisterna,"La Cisterna, Provincia de Santiago, Región Metropolitana de Santiago, Chile",-33.529504200000005,-70.66424867440273,False,0.0
198,200,"La Cisterna, Piloto guillaimet/gran avenida",La Cisterna,"La Cisterna, Provincia de Santiago, Región Metropolitana de Santiago, Chile",-33.529504200000005,-70.66424867440273,False,0.0
199,201,"La Cisterna, comandante soza",La Cisterna,"Inés Riva / Comandante Andrés Soza, Comandante Andrés Soza, La Cisterna, Provincia de Santiago, Región Metropolitana de Santiago, 7970000, Chile",-33.5380128,-70.6761571,True,1.4540081065958523
200,202,"La Cisterna, Livio morra/angamos",La Cisterna,"La Cisterna, Provincia de Santiago, Región Metropolitana de Santiago, Chile",-33.529504200000005,-70.66424867440273,False,0.0
201,203,"La Cisterna, Ramon carvallo/gran avenida jose miguel carrera",La Cisterna,"La Cisterna, Provincia de Santiago, Región Metropolitana de Santiago, Chile",-33.529504200000005,-70.66424867440273,False,0.0
202,204,"La Cisterna, Prof Alcaíno 564",La Cisterna,"La Cisterna, Provincia de Santiago, Región Metropolitana de Santiago, Chile",-33.529504200000005,-70.66424867440273,False,0.0
203,205,"La Cisterna, Gran Avenida/Manuel Fischman",La Cisterna,"La Cisterna, Provincia de Santiago, Región Metropolitana de Santiago, Chile",-33.529504200000005,-70.66424867440273,False,0.0
204,206,"La Cisterna, Bombero Encalada",La Cisterna,"Bombero Encalada, La Cisterna, Provincia de Santiago, Región Metropolitana de Santiago, 7970670, Chile",-33.5362625,-70.6603717,True,0.8316086579442528
205,207,"La Cisterna, Ramon carvallo/gran avenida jose miguel carrera",La Cisterna,"La Cisterna, Provincia de Santiago, Región Metropolitana de Santiago, Chile",-33.529504200000005,-70.66424867440273,False,0.0
206,208,"La Cisterna, Metro La Cisterna / Bombero Encalada/Gran Avenida",La Cisterna,"La Cisterna, Provincia de Santiago, Región Metropolitana de Santiago, Chile",-33.529504200000005,-70.66424867440273,False,0.0
207,209,"La Florida, Los Olivos/Los Raulíes",La Florida,"La Florida, Provincia de Santiago, Región Metropolitana de Santiago, Chile",-33.530816599999994,-70.54407548567474,False,0.0
208,211,"La Florida, El tronco",La Florida,"El Tronco, La Florida, Provincia de Santiago, Región Metropolitana de Santiago, 8220093, Chile",-33.554063,-70.5688905,True,3.458291166052931
209,212,"La Florida, Santa Julia/Brasil",La Florida,"La Florida, Provincia de Santiago, Región Metropolitana de Santiago, Chile",-33.530816599999994,-70.54407548567474,False,0.0
210,213,"La Florida, Rojas magallanes/avda ecuador",La Florida,"La Florida, Provincia de Santiago, Región Metropolitana de Santiago, Chile",-33.530816599999994,-70.54407548567474,False,0.0
211,214,"La Florida, Santa Liliana",La Florida,"Santa Liliana, La Florida, Provincia de Santiago, Región Metropolitana de Santiago, 8290879, Chile",-33.53809,-70.5645009,True,2.0616204741664714
212,215,"La Florida, Portales de Piedra Oriente",La Florida,"Portales de Piedra Oriente, La Florida, Provincia de Santiago, Región Metropolitana de Santiago, M, Chile",-33.5114874,-70.5224991,True,2.934961085989756
213,216,"La Florida, Casa de un piso a pasos de Estación metro Trinidad. La Florida",La Florida,"La Florida, Provincia de Santiago, Región Metropolitana de Santiago, Chile",-33.530816599999994,-70.54407548567474,False,0.0
214,217,"La Florida, Rojas Magallanes/Vicuña Mackenna",La Florida,"Vicuña Mackenna 1 / Rojas Magallanes, Rojas Magallanes, La Florida, Provincia de Santiago, Región Metropolitana de Santiago, 8240000, Chile",-33.5358007,-70.5932819,True,4.603942080155141
215,218,"La Florida, P.20 Avda. La Florida Entre Santa Amalia y Santa Inés",La Florida,"La Florida, Provincia de Santiago, Región Metropolitana de Santiago, Chile",-33.530816599999994,-70.54407548567474,False,0.0
216,219,"La Florida, Tte de Marina Rolando Froden",La Florida,"La Florida, Provincia de Santiago, Región Metropolitana de Santiago, Chile",-33.530816599999994,-70.54407548567474,False,0.0
217,220,"La Florida, La Florida, Región Metropolitana",La Florida,"La Florida, Provincia de Santiago, Región Metropolitana de Santiago, 8240000, Chile",-33.5204181,-70.6006178,True,5.377640970424753
218,221,"La Florida, Santa Julia/Av. Mexico",La Florida,"La Florida, Provincia de Santiago, Región Metropolitana de Santiago, Chile",-33.530816599999994,-70.54407548567474,False,0.0
219,222,"La Florida, La Arena 1084",La Florida,"La Arena, La Florida, Provincia de Santiago, Región Metropolitana de Santiago, 8250736, Chile",-33.5511993,-70.5753032,True,3.6773845277696173
220,223,"La Florida, Colegio Antuquenu Andino",La Florida,"La Florida, Provincia de Santiago, Región Metropolitana de Santiago, Chile",-33.530816599999994,-70.54407548567474,False,0.0
221,224,"La Florida, Lientur",La Florida,"Lientur, Condominio Parque la Portada, La Florida, Provincia de Santiago, Región Metropolitana de Santiago, 022, Chile",-33.5201775,-70.5612175,True,1.9819769842758446
222,225,"La Florida, México/Walker Martinez",La Florida,"México / Walker Martínez, Avenida Walker Martínez, Vicente Valdés, La Florida, Provincia de Santiago, Región Metropolitana de Santiago, 8240000, Chile",-33.5227365,-70.5827992,True,3.707154903245279
223,226,"La Florida, Camino de La Providencia",La Florida,"Camino de la Providencia, Alto Macul, La Florida, Provincia de Santiago, Región Metropolitana de Santiago, 7940697, Chile",-33.520585,-70.5398248,True,1.2015618596140207
224,227,"La Florida, Panama con santa julia",La Florida,"La Florida, Provincia de Santiago, Región Metropolitana de Santiago, Chile",-33.530816599999994,-70.54407548567474,False,0.0
225,228,"La Florida, Propiedad de 700m2 de terreno en sector residencial. La Florida",La Florida,"La Florida, Provincia de Santiago, Región Metropolitana de Santiago, Chile",-33.530816599999994,-70.54407548567474,False,0.0
226,229,"La Florida, Casa en San José de la Estrella",La Florida,"La Florida, Provincia de Santiago, Región Metropolitana de Santiago, Chile",-33.530816599999994,-70.54407548567474,False,0.0
227,230,"La Florida, Paraguay / rojas magallanes",La Florida,"La Florida, Provincia de Santiago, Región Metropolitana de Santiago, Chile",-33.530816599999994,-70.54407548567474,False,0.0
228,231,,La Florida,"Nanno, Ville d'Anaunia, Comunità della Val di Non, Provincia di Trento, Trentino-Alto Adige/Südtirol, 38012, Italia",46.3144754,11.0480288,True,927.9428095309612
229,233,"La Florida, Quebrada Las Perdices/Camino el Convento",La Florida,"La Florida, Provincia de Santiago, Región Metropolitana de Santiago, Chile",-33.530816599999994,-70.54407548567474,False,0.0
230,234,,La Florida,"Nanno, Ville d'Anaunia, Comunità della Val di Non, Provincia di Trento, Trentino-Alto Adige/Südtirol, 38012, Italia",46.3144754,11.0480288,True,927.9428095309612
231,235,"La Florida, Panama/Rojas Magallanes",La Florida,"Panama / Rojas Magallanes, Rojas Magallanes, Antigua Florida, La Florida, Provincia de Santiago, Región Metropolitana de Santiago, 8240000, Chile",-33.5361321,-70.5797131,True,3.3623538406078817
232,236,,La Florida,"Nanno, Ville d'Anaunia, Comunità della Val di Non, Provincia di Trento, Trentino-Alto Adige/Südtirol, 38012, Italia",46.3144754,11.0480288,True,927.9428095309612
233,237,"La Florida, Av. Vicuña mackenna/bacteriológico",La Florida,"La Florida, Provincia de Santiago, Región Metropolitana de Santiago, Chile",-33.530816599999994,-70.54407548567474,False,0.0
234,238,"La Granja, Benjamin Subercaseaux",La Granja,"Benjamín Subercaseaux, Villa Lago Chungará, La Granja, Provincia de Santiago, Región Metropolitana de Santiago, 8010000, Chile",-33.5538894,-70.6318414,True,3.2740006084357347
235,239,"La Granja, Puerto varas",La Granja,"Puerto Varas, La Granja, Provincia de Santiago, Región Metropolitana de Santiago, 8231472, Chile",-33.5285459,-70.6118892,True,4.864912362105283
236,240,"La Granja, Las Fucsias",La Granja,"Las Fucsias, La Granja, Provincia de Santiago, Región Metropolitana de Santiago, 8231472, Chile",-33.5498594,-70.61889,True,3.851913790408055
237,241,"La Granja, Odas Elementales",La Granja,"La Granja, Trasierra-Tierras de Granadilla, Cáceres, Extremadura, 10748, España",40.2393229,-5.9946107,False,0.0
238,242,"La Granja, Los vilos/lo ovalle",La Granja,"Los Vilos / Lo Ovalle, Avenida Lo Ovalle, La Granja, Provincia de Santiago, Región Metropolitana de Santiago, 7980008, Chile",-33.5183328,-70.6319645,True,3.2449793006599896
239,243,"La Granja, Pto Varas 7820",La Granja,"La Granja, Ruta 225 CH, Reflejos del Lago, Tepu, Puerto Varas, Provincia de Llanquihue, Región de Los Lagos, Chile",-41.2300133,-72.5821977,True,864.1448484525409
240,244,"La Granja, Benjamin Subercaseaux",La Granja,"Benjamín Subercaseaux, Villa Lago Chungará, La Granja, Provincia de Santiago, Región Metropolitana de Santiago, 8010000, Chile",-33.5538894,-70.6318414,True,3.2740006084357347
241,245,"La Granja, Cunlahua",La Granja,"La Granja, Trasierra-Tierras de Granadilla, Cáceres, Extremadura, 10748, España",40.2393229,-5.9946107,False,0.0
242,246,"La Granja, Los pensamientos / totalmente equipada/vive al mas alto nivel en la granja",La Granja,"La Granja, Trasierra-Tierras de Granadilla, Cáceres, Extremadura, 10748, España",40.2393229,-5.9946107,False,0.0
243,247,"La Granja, Casa 2 Pisos en San Gregorio",La Granja,"La Granja, Trasierra-Tierras de Granadilla, Cáceres, Extremadura, 10748, España",40.2393229,-5.9946107,False,0.0
244,248,"La Granja, San Gregorio 0489",La Granja,"La Granja, Coronel, Villa Ignacio Serrano, La Granja, Provincia de Santiago, Región Metropolitana de Santiago, 8231472, Chile",-33.5411318,-70.6159781,True,4.665396137686093
245,249,"La Granja, Las Begonias",La Granja,"Las Begonias, Villa Lago Chungará, La Granja, Provincia de Santiago, Región Metropolitana de Santiago, 8231472, Chile",-33.5533282,-70.6187301,True,3.4866159227863007
246,250,"La Pintana, Poeta Rafael Alberti 2326",La Pintana,"La Pintana, Provincia de Santiago, Región Metropolitana de Santiago, 8150513, Chile",-33.5833594,-70.629827,False,0.0
247,251,"La Pintana, Atropos 10835",La Pintana,"La Pintana, Provincia de Santiago, Región Metropolitana de Santiago, 8150513, Chile",-33.5833594,-70.629827,False,0.0
248,252,"La Pintana, Los platanos/santa rosa",La Pintana,"La Pintana, Provincia de Santiago, Región Metropolitana de Santiago, 8150513, Chile",-33.5833594,-70.629827,False,0.0
249,253,"La Pintana, El Mudai 10848",La Pintana,"La Pintana, Provincia de Santiago, Región Metropolitana de Santiago, 8150513, Chile",-33.5833594,-70.629827,False,0.0
250,254,"La Pintana, Teniente pérez canto  ( referencia Lo Martines )",La Pintana,"La Pintana, Provincia de Santiago, Región Metropolitana de Santiago, 8150513, Chile",-33.5833594,-70.629827,False,0.0
251,255,"La Pintana, Lo Martínez/Rubén Darío",La Pintana,"La Pintana, Provincia de Santiago, Región Metropolitana de Santiago, 8150513, Chile",-33.5833594,-70.629827,False,0.0
252,256,"La Pintana, AV. San Francisco 12342, La Pintana",La Pintana,"La Pintana, Provincia de Santiago, Región Metropolitana de Santiago, 8150513, Chile",-33.5833594,-70.629827,False,0.0
253,257,"La Pintana, Jorge Hunneus 332",La Pintana,"La Pintana, Provincia de Santiago, Región Metropolitana de Santiago, 8150513, Chile",-33.5833594,-70.629827,False,0.0
254,258,"La Pintana, Santa Isidora",La Pintana,"La Pintana, Provincia de Santiago, Región Metropolitana de Santiago, 8150513, Chile",-33.5833594,-70.629827,False,0.0
255,259,"La Pintana, Manantiales 2022",La Pintana,"La Pintana, Provincia de Santiago, Región Metropolitana de Santiago, 8150513, Chile",-33.5833594,-70.629827,False,0.0
256,260,"La Pintana, Aníbal Huneeus 0685, La Pintana, Chile",La Pintana,"La Pintana, Provincia de Santiago, Región Metropolitana de Santiago, 8150513, Chile",-33.5833594,-70.629827,False,0.0
257,261,"La Pintana, Juanita",La Pintana,"Plaza Avenida Juanita, Villa Estrecho de Magallanes, La Pintana, Provincia de Santiago, Región Metropolitana de Santiago, Chile",-33.5889013,-70.61930870148967,True,1.1537863548714389
258,262,"La Pintana, Lo Blanco/San Francisco",La Pintana,"Lo Blanco / San Francisco, Avenida San Francisco, Condominio Bicentenario del Bosque, Provincia de Santiago, Región Metropolitana de Santiago, 8010000, Chile",-33.5853977,-70.6631336,True,3.1001821569597627
259,263,"La Pintana, Pasaje Santa Trinidad 11043",La Pintana,"La Pintana, Provincia de Santiago, Región Metropolitana de Santiago, 8150513, Chile",-33.5833594,-70.629827,False,0.0
260,264,"La Pintana, Pasaje Irun",La Pintana,"La Pintana, Provincia de Santiago, Región Metropolitana de Santiago, 8150513, Chile",-33.5833594,-70.629827,False,0.0
261,265,"La Pintana, Teniente Luis Cruz Martínez",La Pintana,"La Pintana, Provincia de Santiago, Región Metropolitana de Santiago, 8150513, Chile",-33.5833594,-70.629827,False,0.0
262,266,"La Pintana, Capitán Layseca/Prunos",La Pintana,"La Pintana, Provincia de Santiago, Región Metropolitana de Santiago, 8150513, Chile",-33.5833594,-70.629827,False,0.0
263,267,"La Pintana, Prunos13848",La Pintana,"La Pintana, Provincia de Santiago, Región Metropolitana de Santiago, 8150513, Chile",-33.5833594,-70.629827,False,0.0
264,268,"La Pintana, Julio Chávez",La Pintana,"La Pintana, Provincia de Santiago, Región Metropolitana de Santiago, 8150513, Chile",-33.5833594,-70.629827,False,0.0
265,269,"La Reina, Tobalaba - Arrieta",La Reina,"José Arrieta / Tobalaba, Avenida Tobalaba, La Reina, Provincia de Santiago, Región Metropolitana de Santiago, 7850633, Chile",-33.4622296,-70.5519968,True,1.706913411874647
266,270,"La Reina, Metro Simón Bolivar/Av. Echeñique",La Reina,"La Reina, Provincia de Santiago, Región Metropolitana de Santiago, Chile",-33.4557204,-70.5353594,False,0.0
267,271,"La Reina, Simon gonzalez/vicente perez rosales",La Reina,"Simón González / Vicente Pérez Rosales, Vicente Pérez Rosales, La Reina, Provincia de Santiago, Región Metropolitana de Santiago, 7850633, Chile",-33.4464472,-70.5513048,True,1.8043575732339567
268,272,"La Reina, Alvaro Casanova 965",La Reina,"Álvaro Casanova, La Reina, Provincia de Santiago, Región Metropolitana de Santiago, 7860379, Chile",-33.4450407,-70.5191552,True,1.9164797434924261
269,273,"La Reina, Piuchén",La Reina,"Pasaje El Piuchén, La Reina, Provincia de Santiago, Región Metropolitana de Santiago, 7860379, Chile",-33.4473449,-70.5384116,True,0.9713253420132175
270,274,"La Reina, Tomás Mora/Av. Fco. Bilbao",La Reina,"La Reina, Provincia de Santiago, Región Metropolitana de Santiago, Chile",-33.4557204,-70.5353594,False,0.0
271,275,"La Reina, Francisco de Villagra/Bramante",La Reina,"La Reina, Provincia de Santiago, Región Metropolitana de Santiago, Chile",-33.4557204,-70.5353594,False,0.0
272,276,"La Reina, Santa Rita/Simon Bolivar",La Reina,"La Reina, Provincia de Santiago, Región Metropolitana de Santiago, Chile",-33.4557204,-70.5353594,False,0.0
273,277,"La Reina, Loreley / Echeñique",La Reina,"Loreley / Echenique, Avenida Echeñique, La Reina, Provincia de Santiago, Región Metropolitana de Santiago, 7850633, Chile",-33.444582,-70.5646177,True,2.9876889462137246
274,278,"La Reina, 7D y 6B l Escultora Rebeca Matte l Helsby",La Reina,"La Reina, Provincia de Santiago, Región Metropolitana de Santiago, Chile",-33.4557204,-70.5353594,False,0.0
275,279,"La Reina, Simón Bolivar/Valenzuela Llanos",La Reina,"La Reina, Provincia de Santiago, Región Metropolitana de Santiago, Chile",-33.4557204,-70.5353594,False,0.0
276,280,"La Reina, Julia bernstrein/Alvaro casanova",La Reina,"La Reina, Provincia de Santiago, Región Metropolitana de Santiago, Chile",-33.4557204,-70.5353594,False,0.0
277,281,"La Reina, alvaro casanova/alvaro Casanova LM",La Reina,"La Reina, Provincia de Santiago, Región Metropolitana de Santiago, Chile",-33.4557204,-70.5353594,False,0.0
278,282,"La Reina, Padre Hurtado Sur/Valenzuela PUelma",La Reina,"La Reina, Provincia de Santiago, Región Metropolitana de Santiago, Chile",-33.4557204,-70.5353594,False,0.0
279,283,"La Reina, 7D 5B + Servicio + Club House/Reina Victoria/Príncipe de Gales  Inmobiliaria, Residencial Adultos Mayores, Colegio",La Reina,"La Reina, Provincia de Santiago, Región Metropolitana de Santiago, Chile",-33.4557204,-70.5353594,False,0.0
280,284,"La Reina, Las Perdices/Talinay",La Reina,"Talinay / Camino Internacional, Ciclovía Las Perdices (Avenida Bilbao - Avenida José Arrieta), La Reina, Peñalolén, Provincia de Santiago, Región Metropolitana de Santiago, 7860379, Chile",-33.4593455,-70.529573,True,0.6716020683510211
281,285,"La Reina, Loreley/Monseñor edwards",La Reina,"La Reina, Provincia de Santiago, Región Metropolitana de Santiago, Chile",-33.4557204,-70.5353594,False,0.0
282,286,"La Reina, Padre Hurtado/Valenzuela Puelma",La Reina,"La Reina, Provincia de Santiago, Región Metropolitana de Santiago, Chile",-33.4557204,-70.5353594,False,0.0
283,287,"La Reina, Av. Alcalde Fernando Castillo Velasco / María Monvel",La Reina,"La Reina, Provincia de Santiago, Región Metropolitana de Santiago, Chile",-33.4557204,-70.5353594,False,0.0
284,288,"La Reina, Julia bernstrein/Alvaro casanova",La Reina,"La Reina, Provincia de Santiago, Región Metropolitana de Santiago, Chile",-33.4557204,-70.5353594,False,0.0
285,289,"La Reina, Carlos Silva Vildósola - Las Perdices/María Monvel - Altazor",La Reina,"La Reina, Provincia de Santiago, Región Metropolitana de Santiago, Chile",-33.4557204,-70.5353594,False,0.0
286,290,"La Reina, Metro Principe de Gales - Reina Victoria",La Reina,"La Reina, Provincia de Santiago, Región Metropolitana de Santiago, Chile",-33.4557204,-70.5353594,False,0.0
287,291,"La Reina, Helsby/Padre Hurtado",La Reina,"Helsby / Padre Hurtado, Avenida Padre Hurtado Sur, La Reina, Provincia de Santiago, Región Metropolitana de Santiago, 7860379, Chile",-33.436008,-70.5369986,True,2.1916559698939917
288,292,"La Reina, Santa rita/alcala de henares",La Reina,"La Reina, Provincia de Santiago, Región Metropolitana de Santiago, Chile",-33.4557204,-70.5353594,False,0.0
289,293,"La Reina, Propiedad Residencial de 1.371 m2. Carlos Silva Vildósola. La Reina",La Reina,"La Reina, Provincia de Santiago, Región Metropolitana de Santiago, Chile",-33.4557204,-70.5353594,False,0.0
290,294,"La Reina, Carlos ossandon/simon bolivar",La Reina,"La Reina, Provincia de Santiago, Región Metropolitana de Santiago, Chile",-33.4557204,-70.5353594,False,0.0
291,295,"La Reina, Carlos Silva Vildosola/Padre Hurtado",La Reina,"La Reina, Provincia de Santiago, Región Metropolitana de Santiago, Chile",-33.4557204,-70.5353594,False,0.0
292,296,"La Reina, Av. Carlos Ossandón",La Reina,"Avenida Carlos Ossandón, La Reina, Santiago, Provincia de Santiago, Región Metropolitana de Santiago, 8320000, Chile",-33.4358466,-70.5428682,True,2.3121778900064007
293,297,"La Reina, Monseñor Edwards/Pdte Ovalle",La Reina,"La Reina, Provincia de Santiago, Región Metropolitana de Santiago, Chile",-33.4557204,-70.5353594,False,0.0
294,298,"La Reina, Propiedad de 800 m2 en excelente sector residencial",La Reina,"La Reina, Provincia de Santiago, Región Metropolitana de Santiago, Chile",-33.4557204,-70.5353594,False,0.0
295,299,"La Reina, Larraín / Tobalaba",La Reina,"Larraín / Tobalaba, Avenida Tobalaba, La Reina, Provincia de Santiago, Región Metropolitana de Santiago, 7850633, Chile",-33.4518867,-70.5592432,True,2.2608661616218884
296,300,"La Reina, Larrain/alvaro casanova",La Reina,"Larraín / Álvaro Casanova, Álvaro Casanova, La Reina, Peñalolén, Provincia de Santiago, Región Metropolitana de Santiago, 7860379, Chile",-33.4547346,-70.5214282,True,1.2997954238880496
297,301,"La Reina, Principe de Gales / Salvador Izquierdo",La Reina,"Príncipe de Gales / Salvador Izquierdo, Salvador Izquierdo, La Reina, Provincia de Santiago, Región Metropolitana de Santiago, 7850633, Chile",-33.4387649,-70.5565776,True,2.725560558974719
298,302,"La Reina, Colegio Grange/Pdte. Ovalle",La Reina,"La Reina, Provincia de Santiago, Región Metropolitana de Santiago, Chile",-33.4557204,-70.5353594,False,0.0
299,303,"La Reina, Carlos Silva Vildósola - Las Perdices/Avenida príncipe de Galez - La Reina Alta",La Reina,"La Reina, Provincia de Santiago, Región Metropolitana de Santiago, Chile",-33.4557204,-70.5353594,False,0.0
300,304,"La Reina, Reina Victoria/Ramón Laval",La Reina,"La Reina, Provincia de Santiago, Región Metropolitana de Santiago, Chile",-33.4557204,-70.5353594,False,0.0
301,305,"La Reina, Helsby/Nicanor Plaza",La Reina,"La Reina, Provincia de Santiago, Región Metropolitana de Santiago, Chile",-33.4557204,-70.5353594,False,0.0
302,306,"La Reina, Hospital Militar/Carlos Ossandon",La Reina,"La Reina, Provincia de Santiago, Región Metropolitana de Santiago, Chile",-33.4557204,-70.5353594,False,0.0
303,307,"La Reina, La Cañada/Mons.Edwards",La Reina,"La Reina, Provincia de Santiago, Región Metropolitana de Santiago, Chile",-33.4557204,-70.5353594,False,0.0
304,308,"La Reina, Las Perdices/Fernando Castillo Velascos",La Reina,"La Reina, Provincia de Santiago, Región Metropolitana de Santiago, Chile",-33.4557204,-70.5353594,False,0.0
305,309,"La Reina, Alcalde Castillo Velasco/Tobalaba",La Reina,"Aeródromo Eulogio Sánchez Errázuriz, 7941, Avenida Alcalde Fernando Castillo Velasco, La Reina, Provincia de Santiago, Región Metropolitana de Santiago, 7850633, Chile",-33.4563635,-70.54795336480396,True,1.1730250138834526
306,310,"La Reina, José Zapiola/ Echeñique",La Reina,"La Reina, Provincia de Santiago, Región Metropolitana de Santiago, Chile",-33.4557204,-70.5353594,False,0.0
307,311,"La Reina, Simon gonzález/carlos ossandon",La Reina,"La Reina, Provincia de Santiago, Región Metropolitana de Santiago, Chile",-33.4557204,-70.5353594,False,0.0
308,312,"La Reina, pje dos. cauquena/nueva príncipe de gales",La Reina,"La Reina, Provincia de Santiago, Región Metropolitana de Santiago, Chile",-33.4557204,-70.5353594,False,0.0
309,313,"La Reina, Colegio Andree - Grange",La Reina,"La Reina, Provincia de Santiago, Región Metropolitana de Santiago, Chile",-33.4557204,-70.5353594,False,0.0
310,314,"Lampa, Casa en Av. San Martín Valle Grande",Lampa,"Lampa, Puno, Perú",-15.416667,-70.583333,False,1980.3105620639726
311,315,"Lampa, Valle Grande",Lampa,"Valle Grande, Santiago, Lampa, Provincia de Chacabuco, Región Metropolitana de Santiago, 9391481, Chile",-33.3242621,-70.7421253,True,3.4453730621172034
312,316,"Lampa, Casa en Valle Grande",Lampa,"Lampa, Puno, Perú",-15.416667,-70.583333,False,1980.3105620639726
313,317,"Lampa, Latorre",Lampa,"Latorre, Santa Carolina Poniente, Batuco, Lampa, Provincia de Chacabuco, Región Metropolitana de Santiago, 93800, Chile",-33.2280944,-70.8062494,True,15.23770832438912
314,318,"Lampa, Larapinta Pte 2514",Lampa,"Lampa, Puno, Perú",-15.416667,-70.583333,False,1980.3105620639726
315,319,"Lampa, Larapinta Oriente",Lampa,"Avenida Larapinta Oriente, Villa El Pellín, Larapinta, Lampa, Provincia de Chacabuco, Región Metropolitana de Santiago, Chile",-33.296077,-70.8783436,True,13.745816203657414
316,320,"Lampa, Camino El Amanecer, Condominio Santa Rosa",Lampa,"Lampa, Puno, Perú",-15.416667,-70.583333,False,1980.3105620639726
317,321,"Lampa, Los Comendadores",Lampa,"Los Comendadores, Batuco, Lampa, Provincia de Chacabuco, Región Metropolitana de Santiago, 9380000, Chile",-33.2529136,-70.7901978,True,12.128617356984002
318,322,"Lampa, Eleuterio Ramírez",Lampa,"Eleuterio Ramírez, Villa Violeta Parra, Lampa, Provincia de Chacabuco, Región Metropolitana de Santiago, Chile",-33.2836903,-70.8736491,True,14.421117576630147
319,323,"Lampa, La montaña sur/rio tolten",Lampa,"Lampa, Puno, Perú",-15.416667,-70.583333,False,1980.3105620639726
320,324,"Lampa, Condominio Mirador del Valle/Batuco/Lampa",Lampa,"Lampa, Puno, Perú",-15.416667,-70.583333,False,1980.3105620639726
321,325,"Lampa, Gral San Martín Nte 305",Lampa,"Lampa, Puno, Perú",-15.416667,-70.583333,False,1980.3105620639726
322,326,"Lampa, El párroco fernandez 640",Lampa,"640, Pasaje Párroco Carlos Fernández, Villa Girasoles de Lampa, Lampa, Provincia de Chacabuco, Región Metropolitana de Santiago, Chile",-33.2855325,-70.883471,True,14.961947392046264
323,327,"Lampa, El Lucero, Lampa",Lampa,"Lampa, Puno, Perú",-15.416667,-70.583333,False,1980.3105620639726
324,328,"Lampa, Hermosa vista al valle piscina,quincho",Lampa,"Lampa, Puno, Perú",-15.416667,-70.583333,False,1980.3105620639726
325,329,"Lampa, Baquedano",Lampa,"Baquedano, Villa Don Nicolás, Lampa, Provincia de Chacabuco, Región Metropolitana de Santiago, Chile",-33.2852231,-70.8774188,True,14.624317777066876
326,330,"Lampa, Los Guerreros",Lampa,"Los Guerreros, Batuco, Lampa, Provincia de Chacabuco, Región Metropolitana de Santiago, 9380000, Chile",-33.240157,-70.7817712,True,13.234225685433973
327,331,"Lampa, La Montaña Norte",Lampa,"Parque Avenida La Montaña Norte, Valle Grande, Lampa, Provincia de Chacabuco, Región Metropolitana de Santiago, Chile",-33.32683485,-70.75347181090456,True,3.2659631795767488
328,332,"Lampa, Los Guerreros",Lampa,"Los Guerreros, Batuco, Lampa, Provincia de Chacabuco, Región Metropolitana de Santiago, 9380000, Chile",-33.240157,-70.7817712,True,13.234225685433973
329,333,"Lampa, Condominio Laguna Norte/Av El Porvenir",Lampa,"Lampa, Puno, Perú",-15.416667,-70.583333,False,1980.3105620639726
330,334,"Lampa, Parcela en Condominio Algarrobo de Batuco",Lampa,"Lampa, Puno, Perú",-15.416667,-70.583333,False,1980.3105620639726
331,335,"Lampa, Condominio Los Coihues",Lampa,"Lampa, Puno, Perú",-15.416667,-70.583333,False,1980.3105620639726
332,336,"Lampa, lampa",Lampa,"Lampa, Puno, Perú",-15.3644309,-70.3666168,True,1985.9965174193267
333,337,"Lampa, Gral San Martin / Rio Claro",Lampa,"Lampa, Puno, Perú",-15.416667,-70.583333,False,1980.3105620639726
334,338,"Lampa, Avenida La Montaña/.Rio Tolten",Lampa,"Lampa, Puno, Perú",-15.416667,-70.583333,False,1980.3105620639726
335,339,"Lampa, Avenida El Rodeo",Lampa,"Lampa, Puno, Perú",-15.416667,-70.583333,False,1980.3105620639726
336,340,"Lampa, Los Comendadores",Lampa,"Los Comendadores, Batuco, Lampa, Provincia de Chacabuco, Región Metropolitana de Santiago, 9380000, Chile",-33.2529136,-70.7901978,True,12.128617356984002
337,341,"Lampa, Tomás González",Lampa,"Tomás González Navarro, Población Isabel Riquelme, Lampa, Provincia de Chacabuco, Región Metropolitana de Santiago, Chile",-33.2861497,-70.8856539,True,14.920936930396756
338,342,"Lampa, Av. La Hacienda 2121",Lampa,"2121, Avenida La Hacienda, Villa El Pellín, Larapinta, Lampa, Provincia de Chacabuco, Región Metropolitana de Santiago, Chile",-33.2925565,-70.8740601,True,13.936655256809349
339,343,"Lampa, Batuco",Lampa,"Batuco, Lampa, Provincia de Chacabuco, Región Metropolitana de Santiago, 93800, Chile",-33.2300466,-70.8085254,True,15.12002757700086
340,344,"Lampa, Camino Las Flores",Lampa,"Camino Las Flores, Larapinta, Lampa, Provincia de Chacabuco, Región Metropolitana de Santiago, Chile",-33.3001623,-70.8813239,True,13.327089828658227
341,345,"Lampa, Las Margaritas Oriente 2443",Lampa,"2443, Pasaje Las Margaritas Oriente, Villa Luis Durand, Larapinta, Sol de Septiembre, Lampa, Provincia de Chacabuco, Región Metropolitana de Santiago, Chile",-33.2954035,-70.8689694,True,13.368209122100598
342,346,"Lampa, Las Calerias",Lampa,"Las Calerías, Lampa, Provincia de Chacabuco, Región Metropolitana de Santiago, 93800, Chile",-33.1944063,-70.8216637,True,19.240171695882335
343,347,"Lampa, Avda Los Halcones",Lampa,"Avenida Los Halcones, Villa Luis Durand, Sol de Septiembre, Lampa, Provincia de Chacabuco, Región Metropolitana de Santiago, Chile",-33.2941029,-70.866524,True,13.24445498493433
344,348,"Lampa, Camino Santa Sara/Condominio Quilquén/Batuco-Lampa",Lampa,"Lampa, Puno, Perú",-15.416667,-70.583333,False,1980.3105620639726
345,349,"Lampa, Camino del Viento",Lampa,"Camino del Viento, Casas de Itahue, Valle Grande, Lampa, Provincia de Chacabuco, Región Metropolitana de Santiago, 9391481, Chile",-33.323523,-70.7490715,True,3.548354939190171
346,350,"Lampa, Condominio los comendadores, batuco.",Lampa,"Lampa, Puno, Perú",-15.416667,-70.583333,False,1980.3105620639726
347,351,"Lampa, Mirador del Valle",Lampa,"Mirador del Valle, Lampa, Provincia de Chacabuco, Región Metropolitana de Santiago, 93800, Chile",-33.1858002,-70.7992464,True,19.47908904072008
348,352,"Lampa, Las Calerias",Lampa,"Las Calerías, Lampa, Provincia de Chacabuco, Región Metropolitana de Santiago, 93800, Chile",-33.1944063,-70.8216637,True,19.240171695882335
349,353,"Lampa, Casa 2 Pisos en Hacienda Urbana Larapinta",Lampa,"Lampa, Puno, Perú",-15.416667,-70.583333,False,1980.3105620639726
350,354,"Lampa, Linda Casa de 1 Piso en Hacienda Urbana Larapinta",Lampa,"Lampa, Puno, Perú",-15.416667,-70.583333,False,1980.3105620639726
351,355,"Lampa, Batuco",Lampa,"Batuco, Lampa, Provincia de Chacabuco, Región Metropolitana de Santiago, 93800, Chile",-33.2300466,-70.8085254,True,15.12002757700086
352,356,"Las Condes, Paul Harris Vital Apoquindo",Las Condes,"Paul Harris / Vital Apoquindo, Vital Apoquindo, Bosque Apoquindo, Las Condes, Provincia de Santiago, Región Metropolitana de Santiago, 7570936, Chile",-33.4221255,-70.5295592,True,1.1599940471904895
353,357,"Las Condes, La Foresta (Mirasol/Gral. Blanche)",Las Condes,"Las Condes, Provincia de Santiago, Región Metropolitana de Santiago, Chile",-33.4247879,-70.51749760753927,False,0.0
354,358,"Las Condes, General Blanche San Carlos Apoquindo/Quebrada Honda",Las Condes,"Las Condes, Provincia de Santiago, Región Metropolitana de Santiago, Chile",-33.4247879,-70.51749760753927,False,0.0
355,359,"Las Condes, La Foresta/Francisco Bulnes Correa",Las Condes,"Francisco Bulnes Correa, San Carlos de Apoquindo, Las Condes, Provincia de Santiago, Región Metropolitana de Santiago, 7630000, Chile",-33.4009046,-70.5173441,True,2.6489788992266847
356,360,"Las Condes, Quinchamali/La Quebrada",Las Condes,"Avenida La Quebrada, Las Puertas, Las Condes, Provincia de Santiago, Región Metropolitana de Santiago, 7710053, Chile",-33.3686366,-70.4941299,True,6.596358041528755
357,361,"Las Condes, Vichato/bilbao",Las Condes,"Las Condes, Provincia de Santiago, Región Metropolitana de Santiago, Chile",-33.4247879,-70.51749760753927,False,0.0
358,362,"Las Condes, Camino El Olivar",Las Condes,"Las Condes, Provincia de Santiago, Región Metropolitana de Santiago, Chile",-33.4247879,-70.51749760753927,False,0.0
359,363,"Las Condes, Mirador Los Dominicos/Vicente Ferrer",Las Condes,"Las Condes, Provincia de Santiago, Región Metropolitana de Santiago, Chile",-33.4247879,-70.51749760753927,False,0.0
360,364,"Las Condes, Camino la viña",Las Condes,"Camino La Viña, Los Frailes, Las Condes, Provincia de Santiago, Región Metropolitana de Santiago, 7630000, Chile",-33.3807354,-70.5161659,True,4.618413127471473
361,365,"Las Condes, Hamilton/Camino La Posada",Las Condes,"Las Condes, Provincia de Santiago, Región Metropolitana de Santiago, Chile",-33.4247879,-70.51749760753927,False,0.0
362,366,"Las Condes, Las Condesas/General Blanche",Las Condes,"Las Condes, Provincia de Santiago, Región Metropolitana de Santiago, Chile",-33.4247879,-70.51749760753927,False,0.0
363,367,"Las Condes, Los Militares",Las Condes,"Los Militares, El Golf, Las Condes, Provincia de Santiago, Región Metropolitana de Santiago, 7550076, Chile",-33.4134971,-70.5845317,True,4.083091469169798
364,368,"Las Condes, Francisco de Asis",Las Condes,"Las Condes, Provincia de Santiago, Región Metropolitana de Santiago, Chile",-33.4247879,-70.51749760753927,False,0.0
365,369,"Las Condes, Fray Bernardo / La Cabaña",Las Condes,"Las Condes, Provincia de Santiago, Región Metropolitana de Santiago, Chile",-33.4247879,-70.51749760753927,False,0.0
366,370,"Las Condes, La foresta",Las Condes,"La Foresta, Las Condes, Provincia de Santiago, Región Metropolitana de Santiago, 7570936, Chile",-33.4069764,-70.5197597,True,1.986679878893672
367,371,"Las Condes, Elegante casa Familiar en Colina Miravalle, Los Domínicos",Las Condes,"Las Condes, Provincia de Santiago, Región Metropolitana de Santiago, Chile",-33.4247879,-70.51749760753927,False,0.0
368,372,"Las Condes, Atalaya",Las Condes,"Atalaya, La Foresta, Las Condes, Provincia de Santiago, Región Metropolitana de Santiago, 7570936, Chile",-33.4131727,-70.5153824,True,1.3031995138873647
369,373,"Las Condes, Carlos Peña Otaegui/Colina del Peumo",Las Condes,"Las Condes, Provincia de Santiago, Región Metropolitana de Santiago, Chile",-33.4247879,-70.51749760753927,False,0.0
370,374,"Las Condes, Félix de Amesti/Las Pataguas",Las Condes,"Las Condes, Provincia de Santiago, Región Metropolitana de Santiago, Chile",-33.4247879,-70.51749760753927,False,0.0
371,375,"Las Condes, Amplios Jardines Maravillosa Vista Piscina Calidad",Las Condes,"Las Condes, Provincia de Santiago, Región Metropolitana de Santiago, Chile",-33.4247879,-70.51749760753927,False,0.0
372,376,"Las Condes, Quinchamalí/Limavida",Las Condes,"Limávida, Quinchamalí, Las Condes, Provincia de Santiago, Región Metropolitana de Santiago, 7710053, Chile",-33.3769327,-70.4952171,True,5.698053362923861
373,377,"Las Condes, Padre hurtado  norte/las verbenas",Las Condes,"Las Condes, Provincia de Santiago, Región Metropolitana de Santiago, Chile",-33.4247879,-70.51749760753927,False,0.0
374,378,"Las Condes, Colon / Hernando de Magallanes",Las Condes,"Las Condes, Provincia de Santiago, Región Metropolitana de Santiago, Chile",-33.4247879,-70.51749760753927,False,0.0
375,379,"Las Condes, Rotonda las flores/campanario",Las Condes,"Las Condes, Provincia de Santiago, Región Metropolitana de Santiago, Chile",-33.4247879,-70.51749760753927,False,0.0
376,380,"Las Condes, Las Condesas/Quebrada Honda",Las Condes,"Las Condes, Provincia de Santiago, Región Metropolitana de Santiago, Chile",-33.4247879,-70.51749760753927,False,0.0
377,381,"Las Condes, Camino Del Observatorio/Los Pintores",Las Condes,"Las Condes, Provincia de Santiago, Región Metropolitana de Santiago, Chile",-33.4247879,-70.51749760753927,False,0.0
378,382,"Las Condes, Camino Mirasol - Camino El Alba/General Blanche - Los Domínicos",Las Condes,"Las Condes, Provincia de Santiago, Región Metropolitana de Santiago, Chile",-33.4247879,-70.51749760753927,False,0.0
379,383,"Las Condes, Las Añañucas/Quinchamali",Las Condes,"Las Condes, Provincia de Santiago, Región Metropolitana de Santiago, Chile",-33.4247879,-70.51749760753927,False,0.0
380,384,"Las Condes, Camino la fuente lado colegio redland school an/la foresta -",Las Condes,"Las Condes, Provincia de Santiago, Región Metropolitana de Santiago, Chile",-33.4247879,-70.51749760753927,False,0.0
381,385,"Las Condes, La Foresta - Mirasol",Las Condes,"Camino Mirasol, La Foresta, Las Condes, Provincia de Santiago, Región Metropolitana de Santiago, 7630000, Chile",-33.4048938,-70.5250043,True,2.3143295184699877
382,386,"Las Condes, Los pintores / Camino El Olivar",Las Condes,"Las Condes, Provincia de Santiago, Región Metropolitana de Santiago, Chile",-33.4247879,-70.51749760753927,False,0.0
383,387,"Las Condes, Atalaya",Las Condes,"Atalaya, La Foresta, Las Condes, Provincia de Santiago, Región Metropolitana de Santiago, 7570936, Chile",-33.4131727,-70.5153824,True,1.3031995138873647
384,388,"Las Condes, Excelente ubicación/otoñal oriente",Las Condes,"Las Condes, Provincia de Santiago, Región Metropolitana de Santiago, Chile",-33.4247879,-70.51749760753927,False,0.0
385,389,"Las Condes, Impresionante/camino la posada",Las Condes,"Las Condes, Provincia de Santiago, Región Metropolitana de Santiago, Chile",-33.4247879,-70.51749760753927,False,0.0
386,390,"Las Condes, Tirúa/Camarico",Las Condes,"Las Condes, Provincia de Santiago, Región Metropolitana de Santiago, Chile",-33.4247879,-70.51749760753927,False,0.0
387,391,"Las Condes, Colina La Gloria",Las Condes,"Colina La Gloria, La Foresta, Las Condes, Provincia de Santiago, Región Metropolitana de Santiago, 7570936, Chile",-33.4069312,-70.5260415,True,2.1340075616134215
388,392,"Las Condes, Las Condesas",Las Condes,"Las Condesas, La Foresta, Las Condes, Provincia de Santiago, Región Metropolitana de Santiago, 7630000, Chile",-33.4075886,-70.521746,True,1.948103787307251
389,393,"Las Condes, Casa 2 Pisos en excelente sector residencial",Las Condes,"Las Condes, Provincia de Santiago, Región Metropolitana de Santiago, Chile",-33.4247879,-70.51749760753927,False,0.0
390,394,"Las Condes, Las condes",Las Condes,"Las Condes, Provincia de Santiago, Región Metropolitana de Santiago, 7550000, Chile",-33.4084548,-70.5671489,True,3.1356123407670626
391,395,"Las Condes, San José de la Sierra/Limavida",Las Condes,"Las Condes, Provincia de Santiago, Región Metropolitana de Santiago, Chile",-33.4247879,-70.51749760753927,False,0.0
392,396,"Las Condes, Polobanda/carlos alrvarado",Las Condes,"Las Condes, Provincia de Santiago, Región Metropolitana de Santiago, Chile",-33.4247879,-70.51749760753927,False,0.0
393,397,"Las Condes, Pasaje cerrado  a pasos verbo, villa maria/martin zamora/ malaga",Las Condes,"Las Condes, Provincia de Santiago, Región Metropolitana de Santiago, Chile",-33.4247879,-70.51749760753927,False,0.0
394,398,"Las Condes, Colegio Wenlock - Carlos Peña Otaegui",Las Condes,"Las Condes, Provincia de Santiago, Región Metropolitana de Santiago, Chile",-33.4247879,-70.51749760753927,False,0.0
395,399,"Las Condes, Paul harris-    gran jardin 800 metros/clinica las condes   - charles hamilton",Las Condes,"Las Condes, Provincia de Santiago, Región Metropolitana de Santiago, Chile",-33.4247879,-70.51749760753927,False,0.0
396,400,"Las Condes, Metro Los Dominicos/Padre Hurtado Sur",Las Condes,"Las Condes, Provincia de Santiago, Región Metropolitana de Santiago, Chile",-33.4247879,-70.51749760753927,False,0.0
397,401,"Las Condes, Cardenal Newman / Bocaccio",Las Condes,"Las Condes, Provincia de Santiago, Región Metropolitana de Santiago, Chile",-33.4247879,-70.51749760753927,False,0.0
398,402,"Las Condes, Sector Camino El Alba",Las Condes,"Las Condes, Provincia de Santiago, Región Metropolitana de Santiago, Chile",-33.4247879,-70.51749760753927,False,0.0
399,403,"Las Condes, Atalaya7Carlos Peña Otaegui",Las Condes,"Las Condes, Provincia de Santiago, Región Metropolitana de Santiago, Chile",-33.4247879,-70.51749760753927,False,0.0
400,404,"Las Condes, Casa de 2 pisos en Camino La Viña",Las Condes,"Las Condes, Provincia de Santiago, Región Metropolitana de Santiago, Chile",-33.4247879,-70.51749760753927,False,0.0
401,405,"Las Condes, Colegio Redland/Las Tortolas",Las Condes,"Las Condes, Provincia de Santiago, Región Metropolitana de Santiago, Chile",-33.4247879,-70.51749760753927,False,0.0
402,406,"Lo Barnechea, Jose Alcalde Delano/Santa Blanca",Lo Barnechea,"Lo Barnechea, Provincia de Santiago, Región Metropolitana de Santiago, Chile",-33.2935888,-70.39035501440654,False,0.0
403,407,"Lo Barnechea, Camino el cajón/camino el alto",Lo Barnechea,"Lo Barnechea, Provincia de Santiago, Región Metropolitana de Santiago, Chile",-33.2935888,-70.39035501440654,False,0.0
404,408,"Lo Barnechea, Arrayan, Pastor Fernandez",Lo Barnechea,"Lo Barnechea, Provincia de Santiago, Región Metropolitana de Santiago, Chile",-33.2935888,-70.39035501440654,False,0.0
405,409,"Lo Barnechea, Lomas Suaves/Falda Larga",Lo Barnechea,"Lo Barnechea, Provincia de Santiago, Región Metropolitana de Santiago, Chile",-33.2935888,-70.39035501440654,False,0.0
406,410,"Lo Barnechea, Condominio/pastor fernandez",Lo Barnechea,"Lo Barnechea, Provincia de Santiago, Región Metropolitana de Santiago, Chile",-33.2935888,-70.39035501440654,False,0.0
407,411,"Lo Barnechea, La Gavilla / Camino El Yunque/Huinganal",Lo Barnechea,"Lo Barnechea, Provincia de Santiago, Región Metropolitana de Santiago, Chile",-33.2935888,-70.39035501440654,False,0.0
408,412,"Lo Barnechea, Camino Los Refugios/Loma Suave",Lo Barnechea,"Lo Barnechea, Provincia de Santiago, Región Metropolitana de Santiago, Chile",-33.2935888,-70.39035501440654,False,0.0
409,413,"Lo Barnechea, Club de Golf Lomas de La Dehesa",Lo Barnechea,"Club de Golf Lomas de la Dehesa, Lomas de La Dehesa, Lo Barnechea, Provincia de Santiago, Región Metropolitana de Santiago, 7700651, Chile",-33.3413497,-70.5324176,True,5.312559099770795
410,414,"Lo Barnechea, Camino Real / Punta de Aguilas/El Golf de Manquehue /",Lo Barnechea,"Lo Barnechea, Provincia de Santiago, Región Metropolitana de Santiago, Chile",-33.2935888,-70.39035501440654,False,0.0
411,415,"Lo Barnechea, Las condes/lucas araya",Lo Barnechea,"Lo Barnechea, Provincia de Santiago, Región Metropolitana de Santiago, Chile",-33.2935888,-70.39035501440654,False,0.0
412,416,"Lo Barnechea, Refugios del Arrayán/Camino del Estero",Lo Barnechea,"Lo Barnechea, Provincia de Santiago, Región Metropolitana de Santiago, Chile",-33.2935888,-70.39035501440654,False,0.0
413,417,"Lo Barnechea, Bernardo Larrain Cotapos/Pedro Lira Urquieta",Lo Barnechea,"Lo Barnechea, Provincia de Santiago, Región Metropolitana de Santiago, Chile",-33.2935888,-70.39035501440654,False,0.0
414,418,"Lo Barnechea, Camino el Refugio/Camino el Arrayan",Lo Barnechea,"Lo Barnechea, Provincia de Santiago, Región Metropolitana de Santiago, Chile",-33.2935888,-70.39035501440654,False,0.0
415,419,"Lo Barnechea, Pastor Fernández/El Remanso",Lo Barnechea,"Lo Barnechea, Provincia de Santiago, Región Metropolitana de Santiago, Chile",-33.2935888,-70.39035501440654,False,0.0
416,420,"Lo Barnechea, Cerro La Paloma/Cerro Punta de Damas",Lo Barnechea,"Lo Barnechea, Provincia de Santiago, Región Metropolitana de Santiago, Chile",-33.2935888,-70.39035501440654,False,0.0
417,421,"Lo Barnechea, Sector Los Nogales",Lo Barnechea,"Lo Barnechea, Provincia de Santiago, Región Metropolitana de Santiago, Chile",-33.2935888,-70.39035501440654,False,0.0
418,422,"Lo Barnechea, Camino El Cajón - El Arrayán",Lo Barnechea,"Lo Barnechea, Provincia de Santiago, Región Metropolitana de Santiago, Chile",-33.2935888,-70.39035501440654,False,0.0
419,423,"Lo Barnechea, El Huinganal / Colegio Mayflower",Lo Barnechea,"Colegio The Mayflower School, 13675, Camino De La Laguna, El Huinganal, Lo Barnechea, Provincia de Santiago, Región Metropolitana de Santiago, 7690286, Chile",-33.346219649999995,-70.50595155046894,True,6.725276720896702
420,424,"Lo Barnechea, Sector El Huinganal",Lo Barnechea,"Lo Barnechea, Provincia de Santiago, Región Metropolitana de Santiago, Chile",-33.2935888,-70.39035501440654,False,0.0
421,425,"Lo Barnechea, Camino Los Trapenses, La Dehesa",Lo Barnechea,"Pumptrack La Dehesa, Camino del Oficio, Las Pataguas, Lo Barnechea, Provincia de Santiago, Región Metropolitana de Santiago, W, Chile",-33.346561300000005,-70.53928282032183,True,4.473627717505302
422,426,"Lo Barnechea, Colegio Huinganal/Camino del Yunque",Lo Barnechea,"Lo Barnechea, Provincia de Santiago, Región Metropolitana de Santiago, Chile",-33.2935888,-70.39035501440654,False,0.0
423,427,"Lo Barnechea, Camino Gran Vista/Malalhue",Lo Barnechea,"Lo Barnechea, Provincia de Santiago, Región Metropolitana de Santiago, Chile",-33.2935888,-70.39035501440654,False,0.0
424,428,"Lo Barnechea, El Golf de Manquehue",Lo Barnechea,"El Golf de Manquehue, Lo Barnechea, Provincia de Santiago, Región Metropolitana de Santiago, 1, Chile",-33.3384779,-70.5556243,True,4.723958786536786
425,429,"Lo Barnechea, Jose Alcalde Delano/Clínica Alemana",Lo Barnechea,"Lo Barnechea, Provincia de Santiago, Región Metropolitana de Santiago, Chile",-33.2935888,-70.39035501440654,False,0.0
426,430,"Lo Barnechea, Los Juglares/Av Panoramica Sur",Lo Barnechea,"Lo Barnechea, Provincia de Santiago, Región Metropolitana de Santiago, Chile",-33.2935888,-70.39035501440654,False,0.0
427,431,"Lo Barnechea, Avda la dehesa/bernardo larraín cv",Lo Barnechea,"Lo Barnechea, Provincia de Santiago, Región Metropolitana de Santiago, Chile",-33.2935888,-70.39035501440654,False,0.0
428,432,"Lo Barnechea, El Rodeo/ Huinganal",Lo Barnechea,"El Rodeo / Camino El Huinganal, Avenida El Rodeo, Pueblito de Lo Barnechea, Lo Barnechea, Provincia de Santiago, Región Metropolitana de Santiago, 7690286, Chile",-33.3513193,-70.5104163,True,6.068578995570945
429,433,"Lo Barnechea, Condominio  el arrayan oportunidad/valle escondido -oportunidad",Lo Barnechea,"Lo Barnechea, Provincia de Santiago, Región Metropolitana de Santiago, Chile",-33.2935888,-70.39035501440654,False,0.0
430,434,"Lo Barnechea, Camino el Huinganal/Camino del Yunque",Lo Barnechea,"C. Del Yunque / Camino El Huinganal, Camino del Yunque, Parque del Sol, Lo Barnechea, Provincia de Santiago, Región Metropolitana de Santiago, 7690286, Chile",-33.3377822,-70.5103329,True,6.984750936480137
431,435,"Lo Barnechea, El arrayán",Lo Barnechea,"El Arrayán, Santiago, Lo Barnechea, Provincia de Santiago, Región Metropolitana de Santiago, 7710240, Chile",-33.3477342,-70.4777925,True,8.947111258618074
432,436,"Lo Barnechea, International School",Lo Barnechea,"Colegio Nido de Águilas, 14200, El Rodeo, Cerro Dieciocho, Lo Barnechea, Provincia de Santiago, Región Metropolitana de Santiago, 7710053, Chile",-33.3501735,-70.50125431819339,True,6.8683877309773145
433,437,"Lo Barnechea, Camino La Villa/Camino Turístico",Lo Barnechea,"Lo Barnechea, Provincia de Santiago, Región Metropolitana de Santiago, Chile",-33.2935888,-70.39035501440654,False,0.0
434,438,"Lo Barnechea, Camino El Cajón/Camino Las Acacias",Lo Barnechea,"Lo Barnechea, Provincia de Santiago, Región Metropolitana de Santiago, Chile",-33.2935888,-70.39035501440654,False,0.0
435,439,"Lo Barnechea, Contralmirante fernadez vial/lo barnechea",Lo Barnechea,"Lo Barnechea, Provincia de Santiago, Región Metropolitana de Santiago, Chile",-33.2935888,-70.39035501440654,False,0.0
436,440,"Lo Barnechea, Camino El Cajón - El Arrayán/Pastor Fernandez - Lo Barnechea",Lo Barnechea,"Lo Barnechea, Provincia de Santiago, Región Metropolitana de Santiago, Chile",-33.2935888,-70.39035501440654,False,0.0
437,441,"Lo Barnechea, Colegio Huinganal",Lo Barnechea,"Colegio Huinganal, Avenida Monseñor Adolfo Rodriguez, Parque Los Quillayes, Lo Barnechea, Provincia de Santiago, Región Metropolitana de Santiago, 7700651, Chile",-33.33522585,-70.51243164643897,True,7.039707028280315
438,442,"Lo Barnechea, Av. Las Condes/Frente a Quinchamali",Lo Barnechea,"Lo Barnechea, Provincia de Santiago, Región Metropolitana de Santiago, Chile",-33.2935888,-70.39035501440654,False,0.0
439,443,"Lo Barnechea, La dehesa",Lo Barnechea,"La Dehesa, Lo Barnechea, Provincia de Santiago, Región Metropolitana de Santiago, 7690286, Chile",-33.3527096,-70.5185906,True,5.3479102520606245
440,444,"Lo Barnechea, Av. La Dehesa/Club de Golf La Dehesa",Lo Barnechea,"Lo Barnechea, Provincia de Santiago, Región Metropolitana de Santiago, Chile",-33.2935888,-70.39035501440654,False,0.0
441,445,"Lo Barnechea, Los refugios 19000 , lo barnechea",Lo Barnechea,"Lo Barnechea, Provincia de Santiago, Región Metropolitana de Santiago, Chile",-33.2935888,-70.39035501440654,False,0.0
442,446,"Lo Barnechea, El arrayan",Lo Barnechea,"El Arrayán, Santiago, Lo Barnechea, Provincia de Santiago, Región Metropolitana de Santiago, 7710240, Chile",-33.3477342,-70.4777925,True,8.947111258618074
443,447,"Lo Barnechea, Los Juglares/Panoramica Sur",Lo Barnechea,"Lo Barnechea, Provincia de Santiago, Región Metropolitana de Santiago, Chile",-33.2935888,-70.39035501440654,False,0.0
444,448,"Lo Barnechea, El Hiunganal/El Rodeo",Lo Barnechea,"Lo Barnechea, Provincia de Santiago, Región Metropolitana de Santiago, Chile",-33.2935888,-70.39035501440654,False,0.0
445,449,"Lo Barnechea, Mall sport",Lo Barnechea,"Lo Barnechea, Provincia de Santiago, Región Metropolitana de Santiago, Chile",-33.2935888,-70.39035501440654,False,0.0
446,450,"Lo Barnechea, Manuel Guzmán Maturana",Lo Barnechea,"Manuel Guzmán Maturana, Parque San Rafael, Lo Barnechea, Provincia de Santiago, Región Metropolitana de Santiago, W, Chile",-33.3586185,-70.5339438,True,3.8104019443586497
447,451,"Lo Barnechea, Camino Huallalolen/Camino El Cajón",Lo Barnechea,"Lo Barnechea, Provincia de Santiago, Región Metropolitana de Santiago, Chile",-33.2935888,-70.39035501440654,False,0.0
448,452,"Lo Barnechea, Av. Las condes",Lo Barnechea,"Avenida Las Condes, La Ermita, Lo Barnechea, Provincia de Santiago, Región Metropolitana de Santiago, 7710053, Chile",-33.3695209,-70.5044758,True,5.827942888047053
449,453,"Lo Barnechea, El Arrayán/Camino San Alfonso",Lo Barnechea,"Lo Barnechea, Provincia de Santiago, Región Metropolitana de Santiago, Chile",-33.2935888,-70.39035501440654,False,0.0
450,454,"Lo Barnechea, El Arrayán/Valle del Refugio",Lo Barnechea,"Lo Barnechea, Provincia de Santiago, Región Metropolitana de Santiago, Chile",-33.2935888,-70.39035501440654,False,0.0
451,455,"Lo Espejo, Casa con 2° Piso en J.M. Caro",Lo Espejo,"Lo Espejo, Provincia de Santiago, Región Metropolitana de Santiago, 9140110, Chile",-33.5201685,-70.6897368284454,False,0.0
452,456,"Lo Espejo, Siete sur",Lo Espejo,"Lo Espejo, Provincia de Santiago, Región Metropolitana de Santiago, 9140110, Chile",-33.5201685,-70.6897368284454,False,0.0
453,457,,Lo Espejo,"Nanno, Ville d'Anaunia, Comunità della Val di Non, Provincia di Trento, Trentino-Alto Adige/Südtirol, 38012, Italia",46.3144754,11.0480288,True,927.9428095309612
454,458,"Lo Espejo, Veintisiete Sur 03658",Lo Espejo,"Lo Espejo, Provincia de Santiago, Región Metropolitana de Santiago, 9140110, Chile",-33.5201685,-70.6897368284454,False,0.0
455,459,"Lo Espejo, Eusebio Lillo 03280",Lo Espejo,"Eusebio Lillo, Lo Espejo, Provincia de Santiago, Región Metropolitana de Santiago, 9140110, Chile",-33.5286746,-70.699781,True,1.3269145700803657
456,460,,Lo Espejo,"Nanno, Ville d'Anaunia, Comunità della Val di Non, Provincia di Trento, Trentino-Alto Adige/Südtirol, 38012, Italia",46.3144754,11.0480288,True,927.9428095309612
457,461,"Lo Espejo, Av. Cerrillos/Pio Xll",Lo Espejo,"Lo Espejo, Provincia de Santiago, Región Metropolitana de Santiago, 9140110, Chile",-33.5201685,-70.6897368284454,False,0.0
458,462,"Lo Espejo, La Habana, Cardenal Caro",Lo Espejo,"Lo Espejo, Provincia de Santiago, Región Metropolitana de Santiago, 9140110, Chile",-33.5201685,-70.6897368284454,False,0.0
459,463,"Lo Prado, Alcaldía",Lo Prado,"Alcaldía, Villa Ecuador, Lo Prado, Provincia de Santiago, Región Metropolitana de Santiago, 8500445, Chile",-33.4479941,-70.7086236,True,1.3741453350874144
460,464,"Lo Prado, Dr Diego Aracena 5882 (I. Decepción/Dorsal)",Lo Prado,"Lo Prado, Provincia de Santiago, Región Metropolitana de Santiago, 8980000, Chile",-33.44740825,-70.7233862593184,False,0.0
461,465,"Lo Prado, Los Pinos 195",Lo Prado,"195, Los Pinos, Villa Ecuador, Lo Prado, Provincia de Santiago, Región Metropolitana de Santiago, 8500445, Chile",-33.450917770833335,-70.70974839166666,True,1.3264062418451745
462,466,"Lo Prado, Los sauces",Lo Prado,"Los Sauces, Lo Prado, Provincia de Santiago, Región Metropolitana de Santiago, 8980000, Chile",-33.4418475,-70.7315589,True,0.978695449852731
463,467,"Lo Prado, Salerno",Lo Prado,"Salerno, Lo Prado, Provincia de Santiago, Región Metropolitana de Santiago, 8500445, Chile",-33.4460524,-70.7083573,True,1.405452279147267
464,468,"Lo Prado, Casa de 1 Piso cercano a Estaciòn metro Lo Prado",Lo Prado,"Lo Prado, Provincia de Santiago, Región Metropolitana de Santiago, 8980000, Chile",-33.44740825,-70.7233862593184,False,0.0
465,469,"Lo Prado, Marga Marga",Lo Prado,"Marga Marga, Lo Prado, Provincia de Santiago, Región Metropolitana de Santiago, 9190847, Chile",-33.4552207,-70.7210984,True,0.8922254651506468
466,470,"Lo Prado, Marga Marga 113",Lo Prado,"113, Marga Marga, Lo Prado, Provincia de Santiago, Región Metropolitana de Santiago, 9190847, Chile",-33.453304662962964,-70.72107742222222,True,0.6883159003378021
467,471,"Lo Prado, Los Sauces 889",Lo Prado,"889, Los Sauces, Lo Prado, Provincia de Santiago, Región Metropolitana de Santiago, 8980000, Chile",-33.44236428544793,-70.73157618778028,True,0.944917969952993
468,472,,Macul,"Nanno, Ville d'Anaunia, Comunità della Val di Non, Provincia di Trento, Trentino-Alto Adige/Südtirol, 38012, Italia",46.3144754,11.0480288,True,927.9428095309612
469,473,"Macul, Quilin/los apostoles",Macul,"Macul, Provincia de Santiago, Región Metropolitana de Santiago, Chile",-33.49194265,-70.59973215756841,False,4.172431762693029
470,474,"Macul, Moisés Junis/Manuel Soto",Macul,"Macul, Provincia de Santiago, Región Metropolitana de Santiago, Chile",-33.49194265,-70.59973215756841,False,4.172431762693029
471,475,"Macul, Froilan Roa/Macul",Macul,"Macul, Provincia de Santiago, Región Metropolitana de Santiago, Chile",-33.49194265,-70.59973215756841,False,4.172431762693029
472,476,"Macul, Pedro Valdivia/Los Espinos",Macul,"Pedro de Valdivia / Los Espinos, Los Espinos, Macul, Provincia de Santiago, Región Metropolitana de Santiago, 7810000, Chile",-33.4770713,-70.6063941,True,2.5794746646950304
473,477,"Macul, Exequiel Fernandez/ padre luis querbes",Macul,"Macul, Provincia de Santiago, Región Metropolitana de Santiago, Chile",-33.49194265,-70.59973215756841,False,4.172431762693029
474,478,"Macul, Brown sur/los olmos",Macul,"Brown Sur / Los Olmos, Brown Sur, Macul, Provincia de Santiago, Región Metropolitana de Santiago, 7810000, Chile",-33.4797925,-70.5955672,True,2.862288347402164
475,479,"Macul, 2 casas de 3d 2b y 2d 1b  villa macul/el libano/av qulín/av jp alessandri",Macul,"Macul, Provincia de Santiago, Región Metropolitana de Santiago, Chile",-33.49194265,-70.59973215756841,False,4.172431762693029
476,480,"Macul, Luis Valenzuela/Paipote",Macul,"Paipote / Luis Valenzuela, Paipote, Macul, Provincia de Santiago, Región Metropolitana de Santiago, 7810000, Chile",-33.4899694,-70.5960835,True,3.9748793252254515
477,481,"Macul, Avenida quilin/marathon",Macul,"Quilin / Marathon, Avenida Marathon, Villa La Arboleda, Macul, Provincia de Santiago, Región Metropolitana de Santiago, 7810000, Chile",-33.4849492,-70.6131033,True,3.5899367528490127
478,482,"Macul, Exequiel fernández/los biólogos",Macul,"Macul, Provincia de Santiago, Región Metropolitana de Santiago, Chile",-33.49194265,-70.59973215756841,False,4.172431762693029
479,483,"Macul, monseñor angel jara 3171",Macul,"Monseñor Ramón Angel Jara, Villa Universidad Católica, Macul, Provincia de Santiago, Región Metropolitana de Santiago, 7810677, Chile",-33.4855074,-70.583006,True,3.82445844786663
480,484,"Macul, Villa Universidad Católica",Macul,"Villa Universidad Católica, Macul, Provincia de Santiago, Región Metropolitana de Santiago, 7810677, Chile",-33.4822993,-70.5827093,True,3.5189866557599108
481,485,"Macul, Brown sur/los olmos",Macul,"Brown Sur / Los Olmos, Brown Sur, Macul, Provincia de Santiago, Región Metropolitana de Santiago, 7810000, Chile",-33.4797925,-70.5955672,True,2.862288347402164
482,486,"Macul, (cas) Castillo Urizar / Rodrigo De Araya",Macul,"Macul, Provincia de Santiago, Región Metropolitana de Santiago, Chile",-33.49194265,-70.59973215756841,False,4.172431762693029
483,487,"Macul, José Maza Fernandez/Siria",Macul,"Macul, Provincia de Santiago, Región Metropolitana de Santiago, Chile",-33.49194265,-70.59973215756841,False,4.172431762693029
484,488,"Macul, San Vicente de Paul/El Libano",Macul,"Macul, Provincia de Santiago, Región Metropolitana de Santiago, Chile",-33.49194265,-70.59973215756841,False,4.172431762693029
485,489,"Macul, exequiel fernandez /benito rebolledo",Macul,"Benito Rebolledo / Exequiel Fernandez, Exequiel Fernández, Villa Lican Ray, Macul, Provincia de Santiago, Región Metropolitana de Santiago, 7830198, Chile",-33.5022662,-70.6029734,True,5.321347484383487
486,490,"Macul, Jorge González Bastías",Macul,"Jorge González Bastías, Macul, Provincia de Santiago, Región Metropolitana de Santiago, 7830198, Chile",-33.4954795,-70.5957015,True,4.586456929597332
487,491,"Macul, Exequiel Fernandez",Macul,"Exequiel Fernández, Macul, Provincia de Santiago, Región Metropolitana de Santiago, 7830198, Chile",-33.4991621,-70.6023945,True,4.975270131812997
488,492,"Macul, Nicanor Molinare",Macul,"Nicanor Molinare, Villa Macul Oriente, Macul, Provincia de Santiago, Región Metropolitana de Santiago, 7810000, Chile",-33.4905726,-70.596914,True,4.034160603064654
489,493,"Macul, Roque Esteban Scarpa Straboni",Macul,"Macul, Provincia de Santiago, Región Metropolitana de Santiago, Chile",-33.49194265,-70.59973215756841,False,4.172431762693029
490,494,"Macul, Federico Gana 4000",Macul,"4000, Federico Gana, Macul, Provincia de Santiago, Región Metropolitana de Santiago, 7810000, Chile",-33.4882519,-70.591049,True,3.8652743412286115
491,495,"Macul, Los platanos/premio nobel",Macul,"Macul, Provincia de Santiago, Región Metropolitana de Santiago, Chile",-33.49194265,-70.59973215756841,False,4.172431762693029
492,496,"Macul, Tolhuaca",Macul,"Tolhuaca, Macul, Provincia de Santiago, Región Metropolitana de Santiago, 7810000, Chile",-33.4802356,-70.5917553,True,2.9880786311712764
493,497,"Macul, Av. Macul/el libano",Macul,"Macul / El Líbano, Avenida El Líbano, Villa Lican Ray, Macul, Provincia de Santiago, Región Metropolitana de Santiago, 7830198, Chile",-33.5018937,-70.594177,True,5.308871978925303
494,498,"Macul, Roque Esteban Scapa/americo vespucio",Macul,"Macul, Provincia de Santiago, Región Metropolitana de Santiago, Chile",-33.49194265,-70.59973215756841,False,4.172431762693029
495,499,"Macul, Alvaro Casanova",Macul,"Macul, Provincia de Santiago, Región Metropolitana de Santiago, Chile",-33.49194265,-70.59973215756841,False,4.172431762693029
496,500,"Macul, Estadio Colo Colo 1891",Macul,"Estadio Colo Colo, Villa Santa Elena, Macul, Provincia de Santiago, Región Metropolitana de Santiago, 7830198, Chile",-33.5049693,-70.6065083,True,5.643458446652573
497,501,"Macul, Entre Siria y Escr Juan Marin",Macul,"Macul, Provincia de Santiago, Región Metropolitana de Santiago, Chile",-33.49194265,-70.59973215756841,False,4.172431762693029
498,502,"Macul, Departamental/Froilán Roa",Macul,"Avenida Departamental / Froilan Roa, Froilán Roa, Villa Lican Ray, Macul, Provincia de Santiago, Región Metropolitana de Santiago, 8260183, Chile",-33.5087329,-70.6020622,True,5.917750440525515
499,503,"Macul, Macul",Macul,"Macul, Autopista Vespucio Sur, Macul, Provincia de Santiago, Región Metropolitana de Santiago, 8240494, Chile",-33.5092379,-70.5900473,True,4.895739299510923
500,504,"Macul, Av. Quilín/Poeta Juan Guzmán Cruchaga",Macul,"Macul, Provincia de Santiago, Región Metropolitana de Santiago, Chile",-33.49194265,-70.59973215756841,False,4.172431762693029
501,505,"Macul, Nicanor Molinare",Macul,"Nicanor Molinare, Villa Macul Oriente, Macul, Provincia de Santiago, Región Metropolitana de Santiago, 7810000, Chile",-33.4905726,-70.596914,True,4.034160603064654
502,506,"Macul, Villa santa elena / mauricio rugendas",Macul,"Mauricio Rugendas, Villa Santa Elena de Pedrero, Macul, Provincia de Santiago, Región Metropolitana de Santiago, 8940000, Chile",-33.5048402,-70.6120273,True,5.569671845748417
503,507,"Macul, El Libano/Purranque",Macul,"Macul, Provincia de Santiago, Región Metropolitana de Santiago, Chile",-33.49194265,-70.59973215756841,False,4.172431762693029
504,508,"Macul, Macul/Víctor Domingo Silva",Macul,"Macul / Víctor Domingo Silva, Víctor Domingo Silva, Macul, Provincia de Santiago, Región Metropolitana de Santiago, 7810000, Chile",-33.4930776,-70.5996315,True,4.298472972058428
505,509,"Macul, Av. Macul/Pedro Prado",Macul,"Pedro Prado, Villa Macul Oriente, Macul, Provincia de Santiago, Región Metropolitana de Santiago, 7810000, Chile",-33.4950514,-70.5974673,True,4.525754877604098
506,510,"Macul, Ramón Cruz/Las Madreselvas",Macul,"Macul, Provincia de Santiago, Región Metropolitana de Santiago, Chile",-33.49194265,-70.59973215756841,False,4.172431762693029
